place_id,name,lat,lng,type,term,categories,business_status,rating,user_ratings_total,permanently_closed
ChIJ_____-B-hYARkH8qFkVlQZA,Marian Koshland Bioscience & Natural Resources Library,37.87141159999999,-122.2621114,Community Space,library,library; point_of_interest; establishment,OPERATIONAL,5,4,NA
ChIJ__-_ciV8hYARxgPm1ycRiEQ,Jean Gray Hargrove Music Library,37.8704442,-122.2561865,Community Space,library,library; point_of_interest; establishment,OPERATIONAL,4.5,10,NA
ChIJ__-_HfN-hYARDfJkROsybIw,Sustainable Berkeley,37.8568896,-122.2898814,Community Space,community center,point_of_interest; establishment,CLOSED_TEMPORARILY,0,0,TRUE
ChIJ__-_yZaPj4ARErYlKnvrRVE,The Fellowship Of Affirming Ministries,37.7247838,-122.1571309,Place of Worship,place of worship,church; place_of_worship; point_of_interest; establishment,OPERATIONAL,0,0,NA
ChIJ__87oLGAj4ARE65D2i_WWj4,Oakland City Hall,37.8053204,-122.2725444,Community Space,city hall,city_hall; local_government_office; point_of_interest; establishment,OPERATIONAL,4.1,29,NA
ChIJ__9jvY6Pj4ARLRic1hUg7JQ,Delight in the Word Bible Fellowship Inc,37.7209866,-122.1674964,Place of Worship,place of worship,church; place_of_worship; point_of_interest; establishment,OPERATIONAL,0,0,NA
ChIJ_-pWxayAj4ARh4qLGoszSn0,Red Bay Coffee Box,37.8126899,-122.2663677,Social Business,cafe,cafe; store; food; point_of_interest; establishment,OPERATIONAL,4.6,82,NA
ChIJ_-pWxayAj4ARh4qLGoszSn0,Red Bay Coffee Box,37.8126899,-122.2663677,Social Business,cafe,cafe; food; point_of_interest; store; establishment,OPERATIONAL,4.6,82,NA
ChIJ_-ZHeKV_hYARg8rY_V_kBW0,Mellana Cafe,37.834217,-122.267607,Social Business,cafe,cafe; store; restaurant; food; point_of_interest; establishment,OPERATIONAL,4.9,67,NA
ChIJ_0qJEYWHj4ARkdiTWtgeSWQ,Paddington Cafe,37.8282702,-122.2104452,Social Business,cafe,cafe; store; food; point_of_interest; establishment,OPERATIONAL,4.5,36,NA
ChIJ_1biw7mFj4ARgry4eL6ECGo,Martin Luther King Jr. Regional Shoreline,37.7305265,-122.2075914,Park,park,park; tourist_attraction; point_of_interest; establishment,OPERATIONAL,4.5,1106,NA
ChIJ_2K_soB-hYARHmgdRdpFdyo,Berkeley Public Library - Tarea Hall Pittman South Branch,37.856408,-122.2710368,Community Space,library,library; point_of_interest; establishment,OPERATIONAL,4.8,32,NA
ChIJ_3ncZUGHj4AReIa0h81N6bk,CAÑA Cuban Parlor & Cafe,37.810391,-122.246565,Social Business,cafe,cafe; bar; restaurant; food; point_of_interest; establishment,OPERATIONAL,4.2,421,NA
ChIJ_4bVYuuHj4AR36h1YJSnlro,Peralta Park,37.797231,-122.2601162,Park,park,park; point_of_interest; establishment,OPERATIONAL,1,1,NA
ChIJ_4otFEGPj4ARMp_wlPcE8Vw,It's A Grind Oakland,37.7711738,-122.1914038,Social Business,cafe,cafe; food; point_of_interest; store; establishment,OPERATIONAL,4.6,357,NA
ChIJ_4u9VESHj4ARpQEYn3oAbc8,book library,37.8120169,-122.2114559,Community Space,library,library; point_of_interest; establishment,OPERATIONAL,0,0,NA
ChIJ_5wULsV_hYAR5dRWdsv6rfU,Cafe Buenos Aires,37.8397169,-122.2889474,Social Business,cafe,cafe; meal_delivery; meal_takeaway; restaurant; food; point_of_interest; store; establishment,OPERATIONAL,5,14,NA
ChIJ_5wULsV_hYAR5dRWdsv6rfU,Cafe Buenos Aires,37.8397169,-122.2889474,Social Business,cafe,cafe; meal_delivery; meal_takeaway; store; restaurant; food; point_of_interest; establishment,OPERATIONAL,5,14,NA
ChIJ_6JaFLR9hYARUcNoe6qJk3k,Garber Park,37.8621779,-122.2363179,Park,park,park; tourist_attraction; point_of_interest; establishment,OPERATIONAL,4.5,56,NA
ChIJ_7lgnKCAj4AR2pucNo_M7zs,Friendship Christian Center,37.8132305,-122.2846286,Place of Worship,place of worship,church; place_of_worship; point_of_interest; establishment,OPERATIONAL,4.8,17,NA
ChIJ_7s_NtuAj4ARRoYpNRwXX2g,Starbucks,37.785514,-122.280602,Social Business,cafe,cafe; store; point_of_interest; food; establishment,OPERATIONAL,3.8,66,NA
ChIJ_8eDH2mPj4ARO97TsnX1Wc0,Simpson Temple Church-God In,37.7524451,-122.1603671,Place of Worship,place of worship,church; place_of_worship; point_of_interest; establishment,OPERATIONAL,5,2,NA
ChIJ_8UckryAj4ARonFM8R0FKKk,GROW Incubator,37.8025285,-122.2834765,Community Space,community center,point_of_interest; establishment,CLOSED_TEMPORARILY,4,5,TRUE
ChIJ_96T-K6Hj4ARWF316g560Zc,McKinley Park,37.7706741,-122.2443342,Park,park,park; point_of_interest; establishment,OPERATIONAL,4.2,49,NA
ChIJ_af28sJ9hYARZpA_9MjZMi4,Bernard M Rosenthal Inc,37.8436925,-122.2518899,Social Business,bookstore,book_store; point_of_interest; store; establishment,CLOSED_TEMPORARILY,0,0,TRUE
ChIJ_dvqqAV-hYAR4g4QX-GLd5A,Upper Room Church-God-Christ,37.8243658,-122.2735795,Place of Worship,place of worship,church; place_of_worship; point_of_interest; establishment,OPERATIONAL,5,2,NA
ChIJ_eCHXeGFj4ARzDUojZxy-wY,Emmanuel Church of God in Christ,37.7618351,-122.1921823,Place of Worship,place of worship,church; place_of_worship; point_of_interest; establishment,OPERATIONAL,5,1,NA
ChIJ_fgiWwKHj4ARoIo1P0oVCYI,Manzanita Recreation Center,37.794261,-122.227912,Community Space,community center,park; tourist_attraction; point_of_interest; establishment,OPERATIONAL,4.4,68,NA
ChIJ_fgiWwKHj4ARoIo1P0oVCYI,Manzanita Recreation Center,37.794261,-122.227912,Park,park,park; tourist_attraction; point_of_interest; establishment,OPERATIONAL,4.4,68,NA
ChIJ_QcUrnt-hYARnMwcHCIodYo,Urban Grace,37.8482468,-122.273344,Place of Worship,place of worship,church; place_of_worship; point_of_interest; establishment,OPERATIONAL,0,0,NA
ChIJ_RD9TEGHj4AROahtxHHzAWU,Eastshore Park,37.809542,-122.2481954,Park,park,park; tourist_attraction; point_of_interest; establishment,OPERATIONAL,4.4,243,NA
ChIJ_RtOt-J9hYARrro9RaXE7DY,Cafe Eritrea D'Afrique,37.829784600000004,-122.26445820000001,Social Business,cafe,restaurant; food; point_of_interest; establishment,OPERATIONAL,4.6,273,NA
ChIJ_SY2Tjp9hYARhJEc2ySExGA,Agape Bay Area,37.82017829999999,-122.2441086,Place of Worship,place of worship,place_of_worship; point_of_interest; establishment,OPERATIONAL,5,4,NA
ChIJ_VesygSPj4ARzyPnBCullXY,Knowland Park,37.7559541,-122.1316042,Park,park,tourist_attraction; park; point_of_interest; establishment,OPERATIONAL,4.7,949,NA
ChIJ_wXVHbSAj4ARs-dA_rsZPco,"Studio T-SQ, Inc.",37.808663,-122.2680694,Park,square,point_of_interest; establishment,OPERATIONAL,0,0,NA
ChIJ_WZbV7aAj4ARlLH9uJAFUfs,Holy Ground Church,37.8001459,-122.2732146,Place of Worship,place of worship,church; place_of_worship; point_of_interest; establishment,OPERATIONAL,5,1,NA
ChIJ_yRuRNqGj4ARw-QWdlmcyUw,Mosley's Cafe,37.7788513,-122.252226,Social Business,cafe,cafe; food; point_of_interest; establishment,OPERATIONAL,4.6,165,NA
ChIJ-_gLg_N-hYARsQmkVFJ8cKQ,Gardensia,37.8546933,-122.2915722,Park,garden,furniture_store; park; home_goods_store; store; point_of_interest; establishment,OPERATIONAL,5,7,NA
ChIJ-_v7YNt-hYARq99IQn5vrzg,Books Inc.,37.8803869,-122.2690449,Social Business,bookstore,book_store; store; point_of_interest; establishment,OPERATIONAL,4.7,152,NA
ChIJ--ihH31-hYARmvC_NIS2GfY,Prince Street Mini-Park,37.8521253,-122.275228,Park,park,park; tourist_attraction; point_of_interest; establishment,OPERATIONAL,4.2,34,NA
ChIJ-02dTA6Hj4ARQq11vu1PmbQ,East Bay Alliance Church,37.804204,-122.229457,Place of Worship,place of worship,church; place_of_worship; point_of_interest; establishment,OPERATIONAL,4.5,13,NA
ChIJ-2_foi-Gj4ARxlj2FrhHukA,Redwood Rd & Mountain Blvd (Lincoln Square),37.79789239999999,-122.1837505,Park,square,transit_station; point_of_interest; establishment,OPERATIONAL,0,0,NA
ChIJ-3HgCFqHj4ARDuw_gTBiZUw,Little Free Library on the Montclair Railroad Trail,37.8318441,-122.1952911,Community Space,library,library; point_of_interest; establishment,CLOSED_TEMPORARILY,0,0,TRUE
ChIJ-5p8XpOGj4ARWHXp3IlE9B0,Square Organics,37.7825696,-122.2403367,Park,square,food; point_of_interest; establishment,OPERATIONAL,5,2,NA
ChIJ-6C2-hN-hYAR2ML9F09H8hg,Starbucks,37.8288673,-122.2823913,Social Business,cafe,cafe; food; point_of_interest; store; establishment,OPERATIONAL,3.5,288,NA
ChIJ-6fD-jN_hYARQpl1VI3-Otk,Reunion Church,37.8299174,-122.2679808,Place of Worship,place of worship,church; place_of_worship; point_of_interest; establishment,OPERATIONAL,0,0,NA
ChIJ-7mxkjGFj4ARRsiCMH2Gwns,Yemeni American Youth Center,37.7389556,-122.2034739,Community Space,community center,point_of_interest; establishment,OPERATIONAL,0,0,NA
ChIJ-8C38xV_hYARijYl96DUEu8,Portal Community Center,37.853575,-122.2689315,Community Space,community center,point_of_interest; establishment,OPERATIONAL,0,0,NA
ChIJ-bzSxpCHj4ARF-Cq8LZiXsw,Village Square Shopping Center Parking,37.8234839,-122.2074166,Park,square,shopping_mall; point_of_interest; establishment,OPERATIONAL,4.1,45,NA
ChIJ-dGHPl2Hj4ARJh0ljOIL3oU,IGLESIA,37.7751503,-122.211497,Place of Worship,place of worship,church; place_of_worship; point_of_interest; establishment,OPERATIONAL,0,0,NA
ChIJ-eaahauHj4ARY3iAxiq2eQk,Petit Cafe,37.8189092,-122.2648049,Social Business,cafe,cafe; bar; food; point_of_interest; store; establishment,OPERATIONAL,4.6,71,NA
ChIJ-fyuBfiFj4ARzCw1apFWTh4,Arroyo Viejo Recreation Center,37.7617365,-122.1757183,Community Space,community center,park; point_of_interest; establishment,OPERATIONAL,3.9,158,NA
ChIJ-fyuBfiFj4ARzCw1apFWTh4,Arroyo Viejo Recreation Center,37.7617365,-122.1757183,Park,park,park; point_of_interest; establishment,OPERATIONAL,3.9,158,NA
ChIJ-Qx3nACGj4AReHhcONNpr3A,Fong's Cafe,37.7698074,-122.1782754,Social Business,cafe,cafe; restaurant; food; point_of_interest; establishment,CLOSED_TEMPORARILY,4.3,317,TRUE
ChIJ-Qx3nACGj4AReHhcONNpr3A,Fong's Cafe,37.7698074,-122.1782754,Social Business,cafe,cafe; restaurant; point_of_interest; food; establishment,CLOSED_TEMPORARILY,4.3,317,TRUE
ChIJ-RSPFll-hYAR8dI8CM6T7dI,Espresso Roma,37.8469815,-122.2911639,Social Business,cafe,restaurant; food; point_of_interest; establishment,OPERATIONAL,5,1,NA
ChIJ-VVu26OAj4AR0lqReKQvygA,Lowell Park,37.80843309999999,-122.2845643,Park,park,park; point_of_interest; establishment,OPERATIONAL,4,207,NA
ChIJ-XYSzYaFj4ARY-SkrBGqR5A,Prince of Peace Missionary Church,37.7362955,-122.1783374,Place of Worship,place of worship,church; place_of_worship; point_of_interest; establishment,OPERATIONAL,4,2,NA
ChIJ-z6DEqKIj4ARnMs2ga18Y0s,Merritt College Bookstore,37.7889957,-122.1672432,Social Business,bookstore,book_store; clothing_store; point_of_interest; store; establishment,OPERATIONAL,4.1,61,NA
ChIJ-zXYu_B_hYARfZUk4VhCrn4,Heritage Square,37.8421116,-122.2902554,Park,square,point_of_interest; establishment,CLOSED_TEMPORARILY,0,0,TRUE
ChIJ04cf1ESFj4ARBXuzdrwPJRA,Starbucks,37.735942,-122.2391098,Social Business,cafe,cafe; store; food; point_of_interest; establishment,OPERATIONAL,4.2,55,NA
ChIJ0acevi58hYARWbsFtrpCPHI,Romeo's Coffee,37.8653361,-122.2583532,Social Business,cafe,cafe; food; point_of_interest; establishment,OPERATIONAL,4.3,228,NA
ChIJ0acevi58hYARWbsFtrpCPHI,Romeo's Coffee,37.8653361,-122.2583532,Social Business,cafe,cafe; point_of_interest; food; establishment,OPERATIONAL,4.3,228,NA
ChIJ0ao6KAZ-hYARUl88c7AQchI,Christian Bible Way Church,37.8277806,-122.2687672,Place of Worship,place of worship,church; place_of_worship; point_of_interest; establishment,OPERATIONAL,4.5,2,NA
ChIJ0c5OFguPj4ARuE51SiXM_ZI,Shoe Palace,37.7431286,-122.1503252,Park,square,shoe_store; point_of_interest; store; establishment,OPERATIONAL,4.1,120,NA
ChIJ0c5OFguPj4ARuE51SiXM_ZI,Shoe Palace,37.7431286,-122.1503252,Park,square,shoe_store; store; point_of_interest; establishment,OPERATIONAL,4.1,120,NA
ChIJ0dv3vD5_hYARcV0rQD5h-Po,Santoro's Park,37.8232017,-122.2889195,Park,park,park; point_of_interest; establishment,OPERATIONAL,4.6,9,NA
ChIJ0U11yPSGj4ARSvr98SiSjDU,Powderface,37.7753174,-122.2242865,Social Business,cafe,cafe; food; point_of_interest; establishment,OPERATIONAL,4.4,247,NA
ChIJ0UMoXFKHj4ARVwgWEVtZJg0,Seventh Church of Christ Scientist,37.8137511,-122.2613565,Place of Worship,place of worship,church; place_of_worship; point_of_interest; establishment,OPERATIONAL,0,0,NA
ChIJ0wJ3S2CPj4ARTLTLqn8gDjk,Amos Temple CME Church,37.749876,-122.1729372,Place of Worship,place of worship,church; place_of_worship; point_of_interest; establishment,OPERATIONAL,5,3,NA
ChIJ0X-H_GOFj4ARCg0IuAM_6xM,Garden Center at The Home Depot,37.7169545,-122.1798932,Park,garden,general_contractor; furniture_store; home_goods_store; point_of_interest; store; establishment,OPERATIONAL,2.8,4,NA
ChIJ0X6nogmHj4ARa6oqJJP0NKA,Ultimate Grounds Et Al,37.8075622,-122.2223625,Social Business,cafe,cafe; store; food; point_of_interest; establishment,OPERATIONAL,4.7,118,NA
ChIJ0y0HZJ2Aj4ARnWYgmk25GjU,Bay Community Fellowship,37.8094315,-122.2976976,Community Space,community center,point_of_interest; establishment,CLOSED_TEMPORARILY,5,4,TRUE
ChIJ0YKhezCHj4ARZ4geAQ118Z0,Montclair Garden Company,37.7960667,-122.25452,Park,garden,general_contractor; point_of_interest; establishment,OPERATIONAL,0,0,NA
ChIJ1_MnpLeHj4ARGEK0TWqDoD4,Oakland Temple Visitors' Center,37.8092139,-122.1998089,Place of Worship,place of worship,park; travel_agency; church; place_of_worship; point_of_interest; establishment,OPERATIONAL,4.9,833,NA
ChIJ1_MnpLeHj4ARGEK0TWqDoD4,Oakland Temple Visitors' Center,37.8092139,-122.1998089,Place of Worship,place of worship,travel_agency; park; church; place_of_worship; point_of_interest; establishment,OPERATIONAL,4.9,833,NA
ChIJ1_MnpLeHj4ARGEK0TWqDoD4,Oakland Temple Visitors' Center,37.8092139,-122.1998089,Place of Worship,place of worship,travel_agency; church; park; place_of_worship; point_of_interest; establishment,OPERATIONAL,4.9,833,NA
ChIJ15nqyf-Fj4ARh5aTQxIinW0,Town Center Cafe,37.7676727,-122.1775094,Social Business,cafe,restaurant; food; point_of_interest; establishment,OPERATIONAL,3.9,51,NA
ChIJ15nqyf-Fj4ARh5aTQxIinW0,Town Center Cafe,37.7676727,-122.1775094,Social Business,cafe,restaurant; point_of_interest; food; establishment,OPERATIONAL,3.9,51,NA
ChIJ15nqyf-Fj4ARUUJDE0EXlII,Oakland Public Library: Eastmont Branch,37.7683105,-122.1767196,Community Space,library,library; point_of_interest; establishment,OPERATIONAL,4.7,20,NA
ChIJ1cJYpxp-hYAR0r8N1dL-NjQ,Church of Christ,37.8250614,-122.2776543,Place of Worship,place of worship,church; place_of_worship; point_of_interest; establishment,OPERATIONAL,5,4,NA
ChIJ1cV6QId-hYARtyz1gUKRa-U,Grove Park,37.8563865,-122.2723007,Park,park,park; tourist_attraction; point_of_interest; establishment,OPERATIONAL,4.3,208,NA
ChIJ1fGhRzWHj4ARPp5YwwbqAG4,Faith Chinese Alliance Church,37.7993317,-122.2646764,Place of Worship,place of worship,church; place_of_worship; point_of_interest; establishment,OPERATIONAL,5,1,NA
ChIJ1fyZh0uHj4ART6g-FIpphKA,Mario Gonzalez Memorial Park,37.75808019999999,-122.2491414,Park,park,park; point_of_interest; establishment,OPERATIONAL,0,0,NA
ChIJ1QpubkCGj4ARZXYotLp5svM,"The High Gardener, Handyman & Filth Romover",37.786182,-122.197885,Park,garden,park; point_of_interest; establishment,OPERATIONAL,0,0,NA
ChIJ1Rpga2p9hYARgmlzMSklkmk,Baker & Commons,37.8583609,-122.253348,Social Business,cafe,cafe; food; point_of_interest; establishment,OPERATIONAL,4.4,174,NA
ChIJ1TKCoBGHj4AR8fcEi0NoO0E,Ribbit Cafe,37.8035251,-122.2341712,Social Business,cafe,food; point_of_interest; establishment,CLOSED_TEMPORARILY,0,0,TRUE
ChIJ1UhYXEmGj4ARSMZ7JXCW_rY,Imani Community Church,37.79530889999999,-122.20204,Place of Worship,place of worship,church; place_of_worship; point_of_interest; establishment,OPERATIONAL,4.9,16,NA
ChIJ1V_rqL-Gj4ARMchY8iZprh0,Alameda City Recreation & Park,37.76638,-122.245292,Park,park,park; point_of_interest; establishment,OPERATIONAL,3.8,5,NA
ChIJ1V_rqL-Gj4ARwh6JN_-bMMs,West End Library,37.77310600000001,-122.2730131,Community Space,library,library; point_of_interest; establishment,OPERATIONAL,4.4,17,NA
ChIJ1wFeGq2Aj4AR2rWlCivKptk,California Genealogical Society Library,37.811072,-122.267317,Community Space,library,library; point_of_interest; establishment,OPERATIONAL,0,0,NA
ChIJ1x3ZL_59hYARTjqGjZHKYkg,Second Church of Christ Scientist,37.8223888,-122.2647045,Place of Worship,place of worship,church; place_of_worship; point_of_interest; establishment,OPERATIONAL,0,0,NA
ChIJ1XV0JAqBj4AREvPG7P5hElA,Cafe Umami Uptown,37.8112889,-122.2661813,Social Business,cafe,cafe; restaurant; food; point_of_interest; establishment,OPERATIONAL,4.7,35,NA
ChIJ1XV0JAqBj4AREvPG7P5hElA,Cafe Umami Uptown,37.8112889,-122.2661813,Social Business,cafe,restaurant; cafe; food; point_of_interest; establishment,OPERATIONAL,4.7,35,NA
ChIJ1Xw6Kxp8hYAR91LoHt4Wl7g,Camaldolese Hermits,37.8840852,-122.256826,Community Space,community center,point_of_interest; establishment,CLOSED_TEMPORARILY,5,1,TRUE
ChIJ1ZlxzYaHj4AR0wLxbeZ7vm0,Oakland Public Library: Montclair Branch,37.8319879,-122.2141065,Community Space,library,library; point_of_interest; establishment,OPERATIONAL,4.9,21,NA
ChIJ2-Hpf3N_hYARyCUJXid9X5o,Walnut Square,37.8799851,-122.2683796,Park,square,shopping_mall; point_of_interest; establishment,OPERATIONAL,0,0,NA
ChIJ2-i0qFaPj4AR4nEKZsgVjNU,Carter Community Cafe,37.7672269,-122.1695154,Social Business,cafe,cafe; point_of_interest; food; establishment,OPERATIONAL,3.7,3,NA
ChIJ20I38JuGj4ARenI56MRJNGc,Grace Church Alameda,37.7696146,-122.2524718,Place of Worship,place of worship,church; place_of_worship; point_of_interest; establishment,OPERATIONAL,5,3,NA
ChIJ20I38JuGj4ARip7jjEcYsb0,Alameda Christian Reformed Church,37.7573583,-122.2361467,Place of Worship,place of worship,church; place_of_worship; point_of_interest; establishment,OPERATIONAL,4.6,11,NA
ChIJ24RGEPB_hYARwpe-F5N82i8,Stanford Avenue Park,37.8396339,-122.2858581,Park,park,point_of_interest; establishment,OPERATIONAL,4.8,5,NA
ChIJ24vZcb2Fj4AR-YO71r0Z--Q,Le Bistro,37.7368808,-122.1981418,Social Business,cafe,restaurant; food; point_of_interest; establishment,CLOSED_TEMPORARILY,4.7,6,TRUE
ChIJ24vZcb2Fj4AR-YO71r0Z--Q,Le Bistro,37.7368808,-122.1981418,Social Business,cafe,restaurant; point_of_interest; food; establishment,CLOSED_TEMPORARILY,4.7,6,TRUE
ChIJ28H2BgB-hYARbxcPGzcgDh0,Samuel Merritt University Bookstore,37.819503,-122.265804,Social Business,bookstore,book_store; clothing_store; store; point_of_interest; establishment,OPERATIONAL,4.6,11,NA
ChIJ2daCIBV-hYAR6rwykFIP_R4,Royas Garden,37.831316,-122.2852473,Park,garden,park; point_of_interest; establishment,OPERATIONAL,0,0,NA
ChIJ2dcxm-WHj4ARCb3uXMSH7bo,Skyline Gate Staging Area,37.8317039,-122.1853764,Park,park,park; point_of_interest; establishment,OPERATIONAL,4.7,448,NA
ChIJ2fjHIzWHj4AR0ftlAyQgzOc,Abby Wasserman,37.7986165,-122.2641937,Social Business,bookstore,book_store; point_of_interest; store; establishment,CLOSED_TEMPORARILY,0,0,TRUE
ChIJ2fjHIzWHj4AR0ftlAyQgzOc,Abby Wasserman,37.7986165,-122.2641937,Social Business,bookstore,book_store; store; point_of_interest; establishment,CLOSED_TEMPORARILY,0,0,TRUE
ChIJ2fSWf_d9hYAR9HE7sy3favM,Owl & Company Bookshop,37.8253654,-122.2540227,Social Business,bookstore,book_store; home_goods_store; store; point_of_interest; establishment,OPERATIONAL,4.8,60,NA
ChIJ2QJrrISAj4ARRbOU5Zt6w9M,Church of the Living God Faith,37.80384919999999,-122.2997775,Place of Worship,place of worship,church; place_of_worship; point_of_interest; establishment,OPERATIONAL,4.3,3,NA
ChIJ2RjH_0-Gj4ARBGZ-BwlIFN8,Church of Christ,37.7890298,-122.2083718,Place of Worship,place of worship,church; place_of_worship; point_of_interest; establishment,OPERATIONAL,1,1,NA
ChIJ2WI1Qf19hYARhw6YPi09iAk,Beebe Memorial Cathedral,37.828319,-122.264236,Place of Worship,place of worship,church; place_of_worship; point_of_interest; establishment,OPERATIONAL,4.6,15,NA
ChIJ2X6JZ12Bj4ARxAerw0uXDzM,Parking,37.8126894,-122.265577,Park,park,park; point_of_interest; establishment,OPERATIONAL,0,0,NA
ChIJ2yqyaLCPj4AR-K-yIG9JyZg,Lucchesi Art Studio,37.731763,-122.1397229,Park,fountain,point_of_interest; establishment,CLOSED_TEMPORARILY,0,0,TRUE
ChIJ2zI2aLKAj4AROnN64NJ1RC8,Zaya Cafe,37.8076418,-122.2689105,Social Business,cafe,cafe; meal_takeaway; store; restaurant; food; point_of_interest; establishment,OPERATIONAL,4.6,23,NA
ChIJ3-UEI5F9hYARzFjDcpDtiVg,Ostrander Park,37.8423927,-122.2349492,Park,park,park; tourist_attraction; point_of_interest; establishment,OPERATIONAL,3.8,9,NA
ChIJ30y9K4yHj4ARXvXrdxUHS_E,Founders Commons,37.7774014,-122.1842672,Social Business,cafe,restaurant; food; point_of_interest; establishment,CLOSED_TEMPORARILY,0,0,TRUE
ChIJ316_Lmx-hYARHThmwEG4rzk,Breakthrough Christian Ministries,37.838343,-122.2799539,Place of Worship,place of worship,church; place_of_worship; point_of_interest; establishment,OPERATIONAL,4.6,5,NA
ChIJ31s-4FaPj4AR9rsYifPPNVc,Gospel of Jesus Christ,37.7648452,-122.1704179,Place of Worship,place of worship,church; place_of_worship; point_of_interest; establishment,OPERATIONAL,4.3,3,NA
ChIJ332ORESGj4AR-sm1-CBtr8o,Allendale Community Pentecostal Holiness Church,37.7868566,-122.2048687,Place of Worship,place of worship,church; place_of_worship; point_of_interest; establishment,OPERATIONAL,0,0,NA
ChIJ33Dy0NqAj4ARL6ITBsfpDCs,CrossFit Mariner Square,37.7859682,-122.278998,Park,square,gym; health; point_of_interest; establishment,OPERATIONAL,4.9,7,NA
ChIJ35RE_GJ_hYAR0IuOJT05Gtk,decay college,37.8424329,-122.2672979,Community Space,community center,point_of_interest; establishment,OPERATIONAL,0,0,NA
ChIJ3aZ6RyWHj4ARO3zplAPehU0,Phở Gà Hương Quê Cafe,37.7938648,-122.2526044,Social Business,cafe,cafe; restaurant; food; point_of_interest; establishment,OPERATIONAL,4.6,139,NA
ChIJ3b1_9Q2Bj4ARzLzeRPjqYL8,VIVE Church Oakland,37.7944701,-122.2719536,Place of Worship,place of worship,church; place_of_worship; point_of_interest; establishment,OPERATIONAL,5,2,NA
ChIJ3deIWV-Pj4AR_1mziTEe4xo,Celebration Worship Center,37.7559311,-122.1743662,Place of Worship,place of worship,church; place_of_worship; point_of_interest; establishment,OPERATIONAL,0,0,NA
ChIJ3elGigV-hYARyjQtXXM8wMM,Church of the Living God,37.8266675,-122.2726929,Place of Worship,place of worship,church; place_of_worship; point_of_interest; establishment,OPERATIONAL,4.7,9,NA
ChIJ3eQXwPaGj4ARCyX50K0Pf2M,Tree of Life Church,37.7810523,-122.2255358,Place of Worship,place of worship,church; place_of_worship; point_of_interest; establishment,OPERATIONAL,0,0,NA
ChIJ3f7b9KqAj4AR6n2V6MantnE,United Roots | Youth Impact Hub,37.817317,-122.2679524,Community Space,community center,point_of_interest; establishment,CLOSED_TEMPORARILY,4.8,32,TRUE
ChIJ3fT2yZCPj4ARfYfEN0uGWcM,City of San Leandro Root Park,37.7268069,-122.1578406,Park,park,park; tourist_attraction; point_of_interest; establishment,OPERATIONAL,3.8,63,NA
ChIJ3ST051d-hYARsKXjY_y-9CI,Point Emery,37.8464432,-122.3003798,Park,park,park; tourist_attraction; point_of_interest; establishment,OPERATIONAL,4.6,301,NA
ChIJ3yG_HtCPj4ARFJMGQ-oYBsg,The Church of Jesus Christ of Latter-day Saints,37.7143076,-122.1394694,Place of Worship,place of worship,church; place_of_worship; point_of_interest; establishment,OPERATIONAL,4.6,11,NA
ChIJ41kQeyF8hYARwcdepzgBPbc,Northside Cafe.,37.8751951,-122.260339,Social Business,cafe,cafe; store; restaurant; point_of_interest; food; establishment,OPERATIONAL,4.1,211,NA
ChIJ4664cHKGj4ARIRPhjLEpk9Q,Luis's Coffee Shop,37.7719294,-122.2009043,Social Business,cafe,cafe; food; store; point_of_interest; establishment,OPERATIONAL,4.3,218,NA
ChIJ4664cHKGj4ARIRPhjLEpk9Q,Luis's Coffee Shop,37.7719294,-122.2009043,Social Business,cafe,cafe; food; point_of_interest; store; establishment,OPERATIONAL,4.3,218,NA
ChIJ4aOGemx-hYARiifQFY63y1M,Emeryville Center Of Community Life,37.8357626,-122.282348,Community Space,community center,school; point_of_interest; establishment,OPERATIONAL,4,1,NA
ChIJ4fao-kGHj4ARvcLfIHBtDzM,Noah's NY Bagels,37.8112631,-122.2434099,Social Business,cafe,cafe; bakery; store; restaurant; food; point_of_interest; establishment,OPERATIONAL,3.7,146,NA
ChIJ4wNmCUuHj4ARrqtnBdRChoc,Good News Cafe,37.8041947,-122.2626062,Social Business,cafe,cafe; store; food; point_of_interest; establishment,OPERATIONAL,4.6,84,NA
ChIJ4wUtTuh9hYARvlwJbrPmVP8,The Chocolate Dragon Bittersweet Cafe and Bakery,37.8408021,-122.2515174,Social Business,cafe,bakery; cafe; food; point_of_interest; store; establishment,OPERATIONAL,4.7,179,NA
ChIJ5-3iUqSAj4ARmz0IpZbFN2U,Mingleton Temple Church of God in Christ,37.8070268,-122.2810751,Place of Worship,place of worship,church; place_of_worship; point_of_interest; establishment,OPERATIONAL,4.9,12,NA
ChIJ5-B1u3CFj4AR1ZX62Aoul4I,Prologis,37.75536049999999,-122.1993415,Social Business,cafe,cafe; point_of_interest; store; food; establishment,OPERATIONAL,0,0,NA
ChIJ5-B1u3CFj4AR1ZX62Aoul4I,Prologis,37.75536049999999,-122.1993415,Social Business,cafe,cafe; food; point_of_interest; store; establishment,OPERATIONAL,0,0,NA
ChIJ51TNrb2Gj4ARZSuIKeDTHAs,Julie's Coffee & Tea Garden,37.7616,-122.2452278,Social Business,cafe,cafe; restaurant; food; point_of_interest; store; establishment,OPERATIONAL,4.6,443,NA
ChIJ51TNrb2Gj4ARZSuIKeDTHAs,Julie's Coffee & Tea Garden,37.7616,-122.2452278,Social Business,cafe,cafe; store; restaurant; food; point_of_interest; establishment,OPERATIONAL,4.6,443,NA
ChIJ52Pm5Zx-hYARFJSVxlIWIuM,Square One Management,37.8674192,-122.268315,Park,square,real_estate_agency; point_of_interest; establishment,OPERATIONAL,3.6,33,NA
ChIJ550A5RZ8hYARe0oDu0mH9Rw,Terrace View Park,37.88414460000001,-122.2507376,Park,park,park; tourist_attraction; point_of_interest; establishment,OPERATIONAL,4.4,35,NA
ChIJ56dj84uFj4ARZWuSvwWpfMw,Lily of the Valley Christian,37.7462997,-122.1799075,Place of Worship,place of worship,church; place_of_worship; point_of_interest; establishment,OPERATIONAL,4.9,17,NA
ChIJ5bTZNvp9hYARQnaswrYmI3I,Mama's Royal Cafe,37.82780229999999,-122.2563223,Social Business,cafe,restaurant; food; point_of_interest; establishment,OPERATIONAL,4.4,678,NA
ChIJ5chYCmqHj4AR_ZwR4Ju5qDE,Rejoice Ministries Christian,37.811027,-122.2426937,Place of Worship,place of worship,church; place_of_worship; point_of_interest; establishment,OPERATIONAL,4,1,NA
ChIJ5ejNRd6Aj4ARRdQXHHQmloU,Woodstock Park,37.7778562,-122.286213,Park,park,park; tourist_attraction; point_of_interest; establishment,OPERATIONAL,4.3,79,NA
ChIJ5eZWxEyHj4ARkj0vDjpoRqU,Snow Park,37.8071141,-122.2642898,Park,park,park; tourist_attraction; point_of_interest; establishment,OPERATIONAL,4.4,657,NA
ChIJ5QNOTl2Bj4AR2CNYTAxTI8A,Lower Bottoms Park,37.8035263,-122.3001027,Park,park,park; point_of_interest; establishment,OPERATIONAL,4.4,85,NA
ChIJ5SFCj1x-hYARzzpbrWEaK5I,Peet's Coffee,37.841617,-122.293626,Social Business,cafe,cafe; food; point_of_interest; store; establishment,OPERATIONAL,4.4,394,NA
ChIJ5SFCj1x-hYARzzpbrWEaK5I,Peet's Coffee,37.841617,-122.293626,Social Business,cafe,cafe; store; food; point_of_interest; establishment,OPERATIONAL,4.4,394,NA
ChIJ5V4u1UJ-hYAREw4Lnviwvdk,Polaris Cafe,37.8401401,-122.2907646,Social Business,cafe,cafe; food; point_of_interest; establishment,OPERATIONAL,4.6,64,NA
ChIJ5VvX8Nh9hYARkIMJqZ1C0DU,Bushrod Park,37.8454589,-122.2635231,Park,park,park; tourist_attraction; point_of_interest; establishment,OPERATIONAL,4.4,338,NA
ChIJ5yc8M0GHj4ARD93-yuYhmzo,Romo’s Cafe,37.7716498,-122.200946,Social Business,cafe,cafe; food; point_of_interest; establishment,OPERATIONAL,4.8,96,NA
ChIJ5zRgQ4iHj4ARqHmRBL3Jco8,오클랜드 성당,37.770423,-122.1827476,Place of Worship,place of worship,church; place_of_worship; point_of_interest; establishment,OPERATIONAL,0,0,NA
ChIJ5zuH7vaGj4ARQ2kLCX7dq5E,Miraculous Foundation,37.7811595,-122.2238852,Place of Worship,place of worship,church; place_of_worship; point_of_interest; establishment,OPERATIONAL,3.5,2,NA
ChIJ6_Q_-pSGj4AR7gQAJKJtclk,Pv Square,37.7681109,-122.2393068,Park,square,point_of_interest; establishment,OPERATIONAL,0,0,NA
ChIJ6-ARXnOPj4AR9iVA_ayNlmA,Foothill Square Apartments,37.7440483,-122.1532727,Park,square,point_of_interest; establishment,OPERATIONAL,4,2,NA
ChIJ6-cvVU-Pj4ARuOAIV-CNdvQ,King Estate Open Space Park,37.7641079,-122.1559739,Park,park,park; tourist_attraction; point_of_interest; establishment,OPERATIONAL,4.5,53,NA
ChIJ60Z0osl9hYAR6QTO2zh9JPc,John Muir School Park,37.8576889,-122.2449159,Park,park,park; tourist_attraction; point_of_interest; establishment,OPERATIONAL,4.1,8,NA
ChIJ671XqJ5-hYARRomHeZwRmkc,Nuha's Cafe,37.87036740000001,-122.2704781,Social Business,cafe,cafe; restaurant; point_of_interest; food; establishment,OPERATIONAL,4.9,17,NA
ChIJ68miF7Z9hYARb0eNAVkP2SE,Aman Cafe,37.8279849,-122.2567268,Social Business,cafe,restaurant; food; point_of_interest; establishment,OPERATIONAL,4.9,17,NA
ChIJ6aGwWkmHj4AR6G7bdQldjMw,Firescape Garden,37.8062848,-122.2590966,Park,garden,park; point_of_interest; establishment,OPERATIONAL,5,1,NA
ChIJ6e5lMaF-hYARHud8rn6osIc,Epicurious Garden,37.8798128,-122.2690504,Park,garden,grocery_or_supermarket; meal_takeaway; restaurant; food; point_of_interest; store; establishment,OPERATIONAL,4.6,20,NA
ChIJ6eLkn5-Pj4ARCDlIy3AYxNg,Victoria Park,37.7367183,-122.1532277,Park,park,park; point_of_interest; establishment,OPERATIONAL,4.6,14,NA
ChIJ6Q0T6-tXhYARfDmAoMLSqoc,Life Change Baptist Church,37.7039026,-122.1862705,Place of Worship,place of worship,church; place_of_worship; point_of_interest; establishment,OPERATIONAL,4.3,11,NA
ChIJ6TokQEaHj4ARfW1JdO6Vcy8,Empowerment Park,37.8077557,-122.2525083,Park,park,park; point_of_interest; establishment,OPERATIONAL,4.5,104,NA
ChIJ6Vcw8X5-hYARLAh21rc8JJA,Zing Cafe,37.8535935,-122.2691658,Social Business,cafe,cafe; food; point_of_interest; establishment,OPERATIONAL,4.5,89,NA
ChIJ6YQ_c5qFj4ARylGSDNOkInE,Ira Jinkins Community Center,37.7372291,-122.1900396,Community Space,community center,point_of_interest; establishment,OPERATIONAL,4.4,73,NA
ChIJ6yRLAbCAj4ARMG4GjbyYjQg,African American Museum and Library at Oakland,37.8061864,-122.276351,Community Space,library,library; museum; point_of_interest; establishment,OPERATIONAL,4.6,40,NA
ChIJ6ZeXBbaAj4ARK9oDqaBf_MU,Great Wall Co,37.79892359999999,-122.2714097,Social Business,bookstore,book_store; point_of_interest; store; establishment,CLOSED_TEMPORARILY,1,2,TRUE
ChIJ7_wLT-h9hYAR3OCQdyUKhj4,East Bay Booksellers,37.8409528,-122.2516083,Social Business,bookstore,book_store; point_of_interest; store; establishment,OPERATIONAL,4.6,151,NA
ChIJ7_YgsCV8hYARBreZ04Yc3N8,Ethnic Studies Library,37.8713614,-122.2575924,Community Space,library,library; point_of_interest; establishment,OPERATIONAL,5,2,NA
ChIJ72TAapt-hYAR0pwDDZy3JXw,The Bridge Church,37.8644432,-122.2726964,Place of Worship,place of worship,church; place_of_worship; point_of_interest; establishment,OPERATIONAL,4.6,13,NA
ChIJ74EdBp-Aj4ARiJ2qqrlh_VQ,Wade Johnson Park,37.8091333,-122.2901962,Park,park,park; tourist_attraction; point_of_interest; establishment,OPERATIONAL,3.4,21,NA
ChIJ7aGBiuB9hYARc_fkY4xQ2XA,Oakland Public Library: Temescal Branch,37.8381274,-122.262517,Community Space,library,library; point_of_interest; establishment,OPERATIONAL,4.7,17,NA
ChIJ7aTVrPN-hYAR4BoxYFP3vrs,Garden Architecture,37.856623,-122.291432,Park,garden,park; general_contractor; point_of_interest; establishment,OPERATIONAL,4.2,5,NA
ChIJ7fBL5d-Gj4ARlZ6f2B64Wmk,Café Aduuuu!!!,37.7873135,-122.2433408,Social Business,cafe,cafe; food; point_of_interest; store; establishment,OPERATIONAL,4.5,31,NA
ChIJ7QqysHWPj4ARzd1yUtYXg5U,Outreach Life Assembly,37.7401222,-122.1556646,Place of Worship,place of worship,church; place_of_worship; point_of_interest; establishment,OPERATIONAL,5,1,NA
ChIJ7WiUluB9hYARYU2iJKUjRFY,Eritrean Community Cultural Civic Center,37.8145583,-122.2800453,Community Space,community center,point_of_interest; establishment,CLOSED_TEMPORARILY,4.5,8,TRUE
ChIJ7XA08v59hYAR8MGBz8yxUnI,Mosswood Recreation Center,37.8236085,-122.2610138,Community Space,community center,point_of_interest; establishment,OPERATIONAL,4,8,NA
ChIJ7zgaSSl9hYARFoyCo1D9fyA,Sleepy Cat Books,37.8648909,-122.2581882,Social Business,bookstore,book_store; store; point_of_interest; establishment,OPERATIONAL,4.9,59,NA
ChIJ7ZmNLbOAj4ARzlIPVknKVfM,Aroma Cafe,37.8066031,-122.2655112,Social Business,cafe,cafe; store; restaurant; food; point_of_interest; establishment,OPERATIONAL,4.6,26,NA
ChIJ7ZmNLbOAj4ARzlIPVknKVfM,Aroma Cafe,37.8066031,-122.2655112,Social Business,cafe,cafe; restaurant; store; food; point_of_interest; establishment,OPERATIONAL,4.6,26,NA
ChIJ7zstUYSHj4AR8VhzahtpZPs,Montclair Park,37.828797,-122.21199,Park,park,park; tourist_attraction; point_of_interest; establishment,OPERATIONAL,4.3,218,NA
ChIJ8_7_EoN-hYAR9mPSwexKo0o,Herrick Campus Cafe: Alta Bates Summit Medical Center,37.8642304,-122.2689578,Social Business,cafe,cafe; food; point_of_interest; establishment,OPERATIONAL,0,0,NA
ChIJ8_AlIjWHj4ARdL-b2fIBMzQ,Town Fare Café,37.7981637,-122.2632131,Social Business,cafe,restaurant; food; point_of_interest; establishment,OPERATIONAL,4.4,22,NA
ChIJ81VsTOWFj4AR7YW5zvlESR4,East Oakland Faith Deliverance Center,37.7584571,-122.1858772,Place of Worship,place of worship,church; place_of_worship; point_of_interest; establishment,OPERATIONAL,4.6,28,NA
ChIJ82r2WkeBj4ARI_zXAQMtH84,Lincoln Mandela Family Resource Center,37.8048151,-122.2919625,Community Space,community center,point_of_interest; establishment,CLOSED_TEMPORARILY,0,0,TRUE
ChIJ85oSU8mAj4AR6Z76S_qiR_4,Oakland Jack London Square,37.7937975,-122.2714882,Park,square,transit_station; train_station; bus_station; point_of_interest; establishment,OPERATIONAL,4.2,109,NA
ChIJ86WWdEGEj4ARRw212H7vKs0,Bay Area Chinese Bible Church,37.7270867,-122.2396743,Place of Worship,place of worship,church; place_of_worship; point_of_interest; establishment,OPERATIONAL,4.5,24,NA
ChIJ89n3Ln9-hYARQmCjRBIbKy0,All Nations Church-Christ Hlnss,37.852391,-122.2676994,Place of Worship,place of worship,church; place_of_worship; point_of_interest; establishment,OPERATIONAL,4.5,2,NA
ChIJ8dBZSGCPj4ARJUgHMDWxNgw,Fifth Church of Christ Scientist,37.7502066,-122.1730219,Place of Worship,place of worship,church; place_of_worship; point_of_interest; establishment,OPERATIONAL,0,0,NA
ChIJ8QyxhSyBj4AR_PnNIVvIfK8,Alameda Chapel,37.7751626,-122.2677535,Place of Worship,place of worship,church; place_of_worship; point_of_interest; establishment,OPERATIONAL,5,3,NA
ChIJ8RExZ0R_hYARL-QAvHa-Chg,BAM poetry garden,37.8770643,-122.2711463,Park,garden,park; point_of_interest; establishment,OPERATIONAL,0,0,NA
ChIJ8SjoYYt9hYAR8B3WmjqBF5s,First Church of Christ Scientist,37.8657859,-122.2558028,Place of Worship,place of worship,church; place_of_worship; point_of_interest; establishment,OPERATIONAL,4.6,14,NA
ChIJ8UBKKN59hYARcfgf0OwQ0VY,Regeneration Church,37.7981297,-122.2546665,Place of Worship,place of worship,church; place_of_worship; point_of_interest; establishment,OPERATIONAL,4.8,31,NA
ChIJ8xdRjcJ9hYARM0sJ4KjvIe4,Highwire Coffee Roasters,37.8436858,-122.2518736,Social Business,cafe,cafe; food; point_of_interest; store; establishment,OPERATIONAL,4.6,174,NA
ChIJ8Y5Wq8aFj4AR-UKuclDBYVg,Oakport Cafe,37.7469444,-122.2033333,Social Business,cafe,cafe; restaurant; point_of_interest; food; establishment,OPERATIONAL,4.2,33,NA
ChIJ8yduf5aPj4ARaQZShMDQHEU,Tapioca Express,37.7240527,-122.1551424,Social Business,cafe,cafe; store; point_of_interest; food; establishment,OPERATIONAL,4.3,180,NA
ChIJ9_ksIZ2Aj4ARx4ZmKdFTHos,Cellar Christian Ministries,37.8070255,-122.2983383,Place of Worship,place of worship,place_of_worship; point_of_interest; establishment,OPERATIONAL,5,1,NA
ChIJ9-sEvZt9hYAR7NgWYOEcRRs,Temescal Regional Recreation Area South Gate Staging Area,37.8436203,-122.2272472,Park,park,park; point_of_interest; establishment,OPERATIONAL,4.6,150,NA
ChIJ92_OdaeBj4ARi1Z3lzRdMF0,The Waterfront Cafe,37.79474039999999,-122.2774979,Social Business,cafe,cafe; point_of_interest; food; establishment,OPERATIONAL,5,1,NA
ChIJ94NcKWd-hYARbElr0bsmnAM,"PLACE - Community Center, Makerspace & Permaculture Site",37.8462171,-122.2855292,Community Space,community center,point_of_interest; establishment,OPERATIONAL,4.7,17,NA
ChIJ94Y7XcaGj4ARjjIbRYQG_sk,First Presbyterian Church-Alameda,37.769734,-122.2516348,Place of Worship,place of worship,church; place_of_worship; point_of_interest; establishment,OPERATIONAL,4.4,14,NA
ChIJ95BDMfJ-hYARpUsCeF9CcwM,Nina's Cafe,37.8565462,-122.2926593,Social Business,cafe,cafe; meal_takeaway; store; restaurant; food; point_of_interest; establishment,OPERATIONAL,4.4,53,NA
ChIJ95wKEqCAj4ARo8x3GrzGs_Y,De Fremery Park,37.812239,-122.2868316,Park,park,park; tourist_attraction; point_of_interest; establishment,OPERATIONAL,4.3,563,NA
ChIJ96s800iGj4ARUyxngc3-S7M,Laurel Art Garden,37.79281700000001,-122.2031804,Park,garden,park; point_of_interest; establishment,OPERATIONAL,5,1,NA
ChIJ97bYKdJ9hYARoba7XzkJ6hU,Bateman Park,37.8554508,-122.256435,Park,park,park; point_of_interest; establishment,OPERATIONAL,3.8,17,NA
ChIJ99dStch9hYARxgnDWIpkMAs,The Escapist Comic Bookstore,37.8544321,-122.2485696,Social Business,bookstore,book_store; point_of_interest; store; establishment,OPERATIONAL,4.6,128,NA
ChIJ99dStch9hYARxgnDWIpkMAs,The Escapist Comic Bookstore,37.8544321,-122.2485696,Social Business,bookstore,book_store; store; point_of_interest; establishment,OPERATIONAL,4.6,128,NA
ChIJ9b5lpLeHj4ARbdBtujHQ5OI,Oakland FamilySearch Library,37.8092651,-122.1997299,Community Space,library,library; point_of_interest; establishment,OPERATIONAL,4.5,8,NA
ChIJ9b5ZVi98hYARYVnKSCctYFE,Cal Student Store,37.8692999,-122.2595139,Social Business,bookstore,clothing_store; book_store; store; point_of_interest; establishment,OPERATIONAL,4.3,442,NA
ChIJ9b72EF5_hYAR4ZftcjHIyRE,EL TINY CAFE,37.8500163,-122.2705863,Social Business,cafe,cafe; store; food; point_of_interest; establishment,OPERATIONAL,4.8,42,NA
ChIJ9bosTtyPj4ARzxrNCpkW5eI,Antigua Coffee Shop - San Leandro,37.724726,-122.1609991,Social Business,cafe,cafe; store; point_of_interest; food; establishment,OPERATIONAL,3.9,19,NA
ChIJ9bosTtyPj4ARzxrNCpkW5eI,Antigua Coffee Shop - San Leandro,37.724726,-122.1609991,Social Business,cafe,cafe; food; store; point_of_interest; establishment,OPERATIONAL,3.9,19,NA
ChIJ9eRavRl_hYAR_ZsJa37Yv-4,Golden Gate Community Garden,37.845607,-122.282239,Park,garden,park; point_of_interest; establishment,OPERATIONAL,5,1,NA
ChIJ9fje8ZyGj4ARu1tTBO7aql0,Cafe Au Lait,37.7563018,-122.2335347,Social Business,cafe,cafe; food; point_of_interest; store; establishment,OPERATIONAL,4.5,54,NA
ChIJ9fved52Pj4ARLaVSqra7eTY,Leisure Cafe,37.7238646,-122.15453,Social Business,cafe,restaurant; point_of_interest; food; establishment,OPERATIONAL,3.5,51,NA
ChIJ9fxixpWPj4ARGhXr9MV4lj8,Peet's Coffee,37.7234772,-122.1534719,Social Business,cafe,cafe; store; point_of_interest; food; establishment,OPERATIONAL,4.4,632,NA
ChIJ9UcP3F6Gj4ARCPS4jEewwD4,Church of the Living God,37.7806866,-122.2166933,Place of Worship,place of worship,church; place_of_worship; point_of_interest; establishment,OPERATIONAL,4,5,NA
ChIJ9WNljB2Hj4ARwQxY4n3sDa4,St. Paul's Church of God,37.79077900000001,-122.2355185,Place of Worship,place of worship,church; place_of_worship; point_of_interest; establishment,OPERATIONAL,5,4,NA
ChIJ9Yuid2aGj4AReJY6m70EpN0,Oakland Public Library: Melrose Branch,37.772436,-122.2076209,Community Space,library,library; point_of_interest; establishment,OPERATIONAL,4.3,21,NA
ChIJ9zSC6MqAj4ARHMUZF-6R9Yk,Madison Park,37.7979607,-122.2670287,Park,park,park; tourist_attraction; point_of_interest; establishment,OPERATIONAL,3.8,90,NA
ChIJA-t1hGqGj4AR5yaLtqDpCpI,Maxwell Park,37.781427,-122.1998804,Park,park,park; point_of_interest; establishment,OPERATIONAL,4.5,96,NA
ChIJa-wuvMeGj4ARK1Sp3Aoetsw,The Meyers House and Garden,37.7674504,-122.2523558,Park,garden,tourist_attraction; point_of_interest; establishment,OPERATIONAL,4.4,7,NA
ChIJa3JobF-Pj4ARoEhEWluIZgg,85th Avenue Mini Park,37.7552349,-122.1734076,Park,park,park; point_of_interest; establishment,OPERATIONAL,3.9,53,NA
ChIJA4_2qbd9hYARtKG84bu0Xuk,Summit Hill Cafe,37.821677,-122.2630846,Social Business,cafe,cafe; food; point_of_interest; establishment,OPERATIONAL,0,0,NA
ChIJA4Op-ZN_hYARULIT1VwpGpI,Agape Love Sojourners Divine Church of the Holy Monochotomy,37.8489239,-122.2782598,Place of Worship,place of worship,church; place_of_worship; point_of_interest; establishment,OPERATIONAL,5,1,NA
ChIJA4QlW3SGj4ARYMX3LZ6LdIU,Ministerio Internacional Alfa & Omega,37.7659127,-122.200799,Place of Worship,place of worship,place_of_worship; point_of_interest; establishment,OPERATIONAL,4.2,5,NA
ChIJa5Waty-Gj4ARWW_6jgvJAZI,First Covenant Church Oakland,37.7988255,-122.1832307,Place of Worship,place of worship,church; place_of_worship; point_of_interest; establishment,OPERATIONAL,4.6,16,NA
ChIJa7g4aPyGj4ARYvaOAlpWUcg,Canaan Ministries,37.7889923,-122.2277523,Place of Worship,place of worship,church; place_of_worship; point_of_interest; establishment,OPERATIONAL,0,0,NA
ChIJA9oF38l_hYARuRNcXWCuqZs,Judge John Sutter Regional Shoreline,37.8208294,-122.3283813,Park,park,park; point_of_interest; establishment,OPERATIONAL,4.8,16,NA
ChIJA9QPASeBj4AR9d-C11d7U2c,East Bay Baptist Church,37.7745853,-122.2797405,Place of Worship,place of worship,church; place_of_worship; point_of_interest; establishment,OPERATIONAL,5,1,NA
ChIJa9vo_SV8hYARKlWfsBYS2A0,Multicultural Community Center,37.86915279999999,-122.2593987,Community Space,community center,point_of_interest; establishment,OPERATIONAL,4.7,6,NA
ChIJAbrOKvKOj4ARVv3zYBvxB2g,Anthony Chabot Regional Park,37.7500386,-122.1046897,Park,park,park; tourist_attraction; point_of_interest; establishment,OPERATIONAL,4.7,1072,NA
ChIJAcVg8buAj4ARkhKKLe7wpbM,Gingerville,37.8007593,-122.2821385,Place of Worship,place of worship,place_of_worship; point_of_interest; establishment,OPERATIONAL,5,2,NA
ChIJAd__7ZaBj4ARRt04d7WdokM,Bernie 2020 Oakland Office,37.8053303,-122.2703684,Community Space,community center,point_of_interest; establishment,CLOSED_TEMPORARILY,4,4,TRUE
ChIJAdqOkd2Fj4ARw_8R7d8zI70,Coliseum Gardens,37.7572132,-122.1983722,Park,park,park; tourist_attraction; point_of_interest; establishment,OPERATIONAL,4.2,102,NA
ChIJAdqOkd2Fj4ARw_8R7d8zI70,Coliseum Gardens,37.7572132,-122.1983722,Park,garden,park; tourist_attraction; point_of_interest; establishment,OPERATIONAL,4.2,102,NA
ChIJAe3pMC18hYAROl5VDUkRDpA,Willard Clubhouse Rec Center,37.8605638,-122.2561213,Community Space,community center,point_of_interest; establishment,OPERATIONAL,5,5,NA
ChIJafFEYhmHj4ARAAXGZstWLag,Queen Memorial Church of God,37.7961695,-122.2372454,Place of Worship,place of worship,church; place_of_worship; point_of_interest; establishment,OPERATIONAL,5,15,NA
ChIJAfX0nOeFj4ARl54Fo49XdQ0,Lion Creek Crossing Family Resource Center,37.7568367,-122.1974415,Community Space,community center,point_of_interest; establishment,OPERATIONAL,4.2,5,NA
ChIJaQ_-o1SGj4ARkTA9ZB1I9l0,The First Samoan Congregational UCC,37.7956942,-122.2146683,Place of Worship,place of worship,church; place_of_worship; point_of_interest; establishment,OPERATIONAL,5,2,NA
ChIJAQAAACd-hYARkwCQyui6d28,Bertha Port Park,37.8079603,-122.3023147,Park,park,park; tourist_attraction; point_of_interest; establishment,OPERATIONAL,4.2,16,NA
ChIJAQAAACGHj4AR8KlyPxCTVG4,Grace Temple Missionary Baptist,37.7702952,-122.1788261,Place of Worship,place of worship,church; place_of_worship; point_of_interest; establishment,OPERATIONAL,5,3,NA
ChIJAQAAAGSGj4ARRINTh6ybUWc,Ching Gardening,37.7729273,-122.2143323,Park,garden,general_contractor; point_of_interest; establishment,OPERATIONAL,0,0,NA
ChIJAQAAAKyHj4ARfdgtyxVXNsc,Oakland Worship Center Church,37.8286763,-122.2485942,Place of Worship,place of worship,church; place_of_worship; point_of_interest; establishment,OPERATIONAL,4.9,14,NA
ChIJAQAAAKyHj4ARRrT7aGhLb5Q,D Garden & Landscaping,37.8015933,-122.2143153,Park,garden,general_contractor; point_of_interest; establishment,CLOSED_TEMPORARILY,0,0,TRUE
ChIJAQAAAON9hYAR5Prf-V2Qvgk,Square One Yoga,37.8342953,-122.2633336,Park,square,gym; health; point_of_interest; establishment,OPERATIONAL,5,3,NA
ChIJAQAAAON9hYARlmlSy-0nM0c,Community Works,37.7957228,-122.2763347,Community Space,community center,point_of_interest; establishment,OPERATIONAL,4.9,9,NA
ChIJAQAcHa2Hj4ARTv3eGgLK29s,十架救恩基督教會,37.7254009,-122.149453,Place of Worship,place of worship,church; place_of_worship; point_of_interest; establishment,OPERATIONAL,0,0,NA
ChIJAQAwriV8hYARQdxyNG6mnw0,Rosberg International Studies Library,37.8721876,-122.2595194,Community Space,library,library; point_of_interest; establishment,CLOSED_TEMPORARILY,0,0,TRUE
ChIJAQDf5H9-hYARlTx-tPekPyA,The Church by the Side of the Road,37.8567375,-122.265894,Place of Worship,place of worship,church; place_of_worship; point_of_interest; establishment,OPERATIONAL,4.5,8,NA
ChIJaR3doEaHj4ARlJ9M39xhfCo,Merritt Station Cafe,37.8097447,-122.2495083,Social Business,cafe,cafe; food; point_of_interest; establishment,OPERATIONAL,4.5,109,NA
ChIJaRwK7VeGj4AR0RPBh827Yds,Cathedral Dial-A-Prayer,37.7860111,-122.2195164,Place of Worship,place of worship,church; place_of_worship; point_of_interest; establishment,OPERATIONAL,0,0,NA
ChIJaRxcASmBj4ARKEviv-ZHzCQ,Lincoln University Library,37.8051252,-122.2698325,Community Space,library,library; point_of_interest; establishment,OPERATIONAL,5,2,NA
ChIJaTdOYRd-hYARAZC6hTMwTeA,Poplar Park,37.82355,-122.2838641,Park,park,park; tourist_attraction; point_of_interest; establishment,OPERATIONAL,3.8,21,NA
ChIJATeQ7yd8hYARtIL0y4SiJIg,Career Counseling Library,37.8679323,-122.2644808,Community Space,library,library; point_of_interest; establishment,OPERATIONAL,5,1,NA
ChIJaVGhloV9hYARrvH5DiMBiZo,Oakland Center for Spiritual Living,37.8362053,-122.2298025,Place of Worship,place of worship,church; place_of_worship; point_of_interest; store; establishment,OPERATIONAL,4.9,30,NA
ChIJAVHe-8CPj4ARvKGuB0wh2HY,Mack's Gardening Supplies,37.7194063,-122.1486675,Park,garden,point_of_interest; establishment,OPERATIONAL,4.6,32,NA
ChIJaVlLEzKHj4AROded06kq4Pk,OakCali Cafe,37.7992318,-122.254809,Social Business,cafe,cafe; food; point_of_interest; establishment,OPERATIONAL,4.8,40,NA
ChIJawFMfraAj4ARXrPa08HcCxg,"Oakland Public Library, Asian Branch",37.80076750000001,-122.2711403,Community Space,library,library; point_of_interest; establishment,OPERATIONAL,4.2,12,NA
ChIJAXJpsKuHj4ARHaqfdlbzdEc,Dimond Cafe,37.7997783,-122.2162351,Social Business,cafe,cafe; bakery; food; point_of_interest; store; establishment,OPERATIONAL,4.7,73,NA
ChIJAXJpsKuHj4ARHaqfdlbzdEc,Dimond Cafe,37.7997783,-122.2162351,Social Business,cafe,cafe; bakery; store; food; point_of_interest; establishment,OPERATIONAL,4.7,73,NA
ChIJAXUZGh18hYARe7Uug71u2io,Berkeley Rose Garden,37.8852994,-122.2628894,Park,garden,tourist_attraction; park; point_of_interest; establishment,OPERATIONAL,4.6,1369,NA
ChIJay6RDEKGj4ARlorbDzlPInw,Courtland Creek Park,37.7812293,-122.2042246,Park,park,park; tourist_attraction; point_of_interest; establishment,OPERATIONAL,3.9,58,NA
ChIJAy7Ho999hYARFrV2rp0PXT0,Burlap Coffee,37.8290224,-122.2648596,Social Business,cafe,cafe; food; point_of_interest; establishment,OPERATIONAL,4.7,80,NA
ChIJAyflhGWGj4ARjd_wZKZc8PE,New Africa Cafe,37.7725611,-122.2090501,Social Business,cafe,cafe; restaurant; food; point_of_interest; establishment,OPERATIONAL,5,24,NA
ChIJayFuikSGj4ARKmCG4X8-JXo,Vientian Cafe,37.7861044,-122.2057876,Social Business,cafe,restaurant; food; point_of_interest; establishment,OPERATIONAL,4.5,441,NA
ChIJaYHARDB8hYARRY9Kq7EU3q0,International House Cafe,37.8696559,-122.2514304,Social Business,cafe,cafe; store; restaurant; point_of_interest; food; establishment,OPERATIONAL,3.9,98,NA
ChIJB_JUL8OHj4ARM1ZIwD7PuEQ,Parking For Tres Sendas Hike,37.8216136,-122.1866513,Park,park,park; point_of_interest; establishment,OPERATIONAL,3,1,NA
ChIJB-_d4D2Hj4ARd_-KVJEnP6I,Trybe,37.7907645,-122.2403228,Community Space,community center,point_of_interest; health; establishment,OPERATIONAL,0,0,NA
ChIJB-_d4D2Hj4ARd_-KVJEnP6I,Trybe,37.7907645,-122.2403228,Community Space,community center,health; point_of_interest; establishment,OPERATIONAL,0,0,NA
ChIJB-0ytkh8hYARLPEQsVn-oo4,University of California Botanical Garden,37.875145,-122.2387194,Park,garden,park; point_of_interest; establishment,OPERATIONAL,4.8,1539,NA
ChIJB-rhOKZ-hYAR5RzDmRfjJd4,Live Oak Recreation Center,37.8838014,-122.2690907,Community Space,community center,park; tourist_attraction; point_of_interest; establishment,OPERATIONAL,4.6,64,NA
ChIJB-rhOKZ-hYAR5RzDmRfjJd4,Live Oak Recreation Center,37.8838014,-122.2690907,Park,park,park; tourist_attraction; point_of_interest; establishment,OPERATIONAL,4.6,64,NA
ChIJB1gEkEGHj4ARleeyMyJa6y4,Arizmendi Bakery,37.8106856,-122.2447939,Social Business,cafe,bakery; cafe; meal_takeaway; store; restaurant; food; point_of_interest; establishment,OPERATIONAL,4.8,1439,NA
ChIJB2FA3Yt-hYAR3MrezJR79Tc,Frances Albrier Community Center,37.8551971,-122.2833095,Community Space,community center,point_of_interest; establishment,OPERATIONAL,4.2,21,NA
ChIJb2W6T1eHj4AR5gvt_UYz6ts,Bee Hotel Garden,37.8062074,-122.2587525,Park,garden,park; point_of_interest; establishment,OPERATIONAL,4.5,2,NA
ChIJB3di6Z1-hYARcHgGugsXH5g,Café Rio,37.8703783,-122.2666222,Social Business,cafe,cafe; convenience_store; store; point_of_interest; food; establishment,OPERATIONAL,3.6,22,NA
ChIJb3krt0aHj4ARnoV27t9Dni8,Oakland Public Library: Lakeview Branch,37.8092203,-122.2489234,Community Space,library,library; point_of_interest; establishment,OPERATIONAL,4.5,28,NA
ChIJB3WkIR-Fj4ARiu8-Cp9Je-0,Henry’s Gallery Cafe,37.7232675,-122.1877329,Social Business,cafe,restaurant; food; point_of_interest; establishment,OPERATIONAL,5,4,NA
ChIJB68_cK2Ij4ARNLmzE3v5Wpc,Burkhalter Park,37.775789,-122.164059,Park,park,park; point_of_interest; establishment,OPERATIONAL,4.3,82,NA
ChIJb7EtKwyGj4AR0-H6TZdYhBI,New Hope Church of God in Christ,37.772643,-122.1918257,Place of Worship,place of worship,church; place_of_worship; point_of_interest; establishment,OPERATIONAL,4.9,12,NA
ChIJB7GdzmiPj4AR4J0c6JJKj70,Knowland park,37.7523526,-122.131146,Park,park,park; point_of_interest; establishment,OPERATIONAL,5,2,NA
ChIJb7ZZJbKAj4AR1sGRB6qSmLQ,Latham Square Garage,37.8063624,-122.2707002,Park,square,parking; point_of_interest; establishment,OPERATIONAL,3,2,NA
ChIJb7ZZJbKAj4ARK05lhf9LWoo,Latham Square LLC,37.8064815,-122.270775,Park,square,point_of_interest; establishment,OPERATIONAL,5,4,NA
ChIJB8C1Zy58hYARFo7n9VwZ4mk,Vedanta Society Berkeley,37.86609079999999,-122.2561247,Place of Worship,place of worship,place_of_worship; point_of_interest; establishment,OPERATIONAL,4.9,10,NA
ChIJb8mSa4OGj4ARp-C_jAc2ru0,Lincoln Park,37.7577399,-122.229634,Park,park,park; tourist_attraction; point_of_interest; establishment,OPERATIONAL,4.6,434,NA
ChIJb9aReQ6Pj4ARIhGmRt6cVcA,Tuskers Grill at Oakland Zoo,37.7486726,-122.1456333,Social Business,cafe,cafe; food; point_of_interest; establishment,OPERATIONAL,3.9,182,NA
ChIJBaBkFb2Bj4AR1nNNB7zJGiY,Alameda Skatepark Parking Lot DIY Skate Spot,37.7894989,-122.3065035,Park,park,park; point_of_interest; establishment,OPERATIONAL,0,0,NA
ChIJBbb9kqmHj4ARQ0JFWglmNqY,Southern Café,37.8010509,-122.2184445,Social Business,cafe,meal_takeaway; restaurant; food; point_of_interest; establishment,OPERATIONAL,4.4,1025,NA
ChIJbbVx8Sd8hYARG-HGSJWzlRw,Café Blue Door,37.8679118,-122.2641121,Social Business,cafe,cafe; store; food; point_of_interest; establishment,OPERATIONAL,4.3,161,NA
ChIJbbVx8Sd8hYARG-HGSJWzlRw,Café Blue Door,37.8679118,-122.2641121,Social Business,cafe,cafe; store; point_of_interest; food; establishment,OPERATIONAL,4.3,161,NA
ChIJbdfx6-KHj4AROEhBKO7_CMY,Square One,37.76294439999999,-122.2442807,Park,square,point_of_interest; establishment,OPERATIONAL,0,0,NA
ChIJbeufR4B-hYARsH0534OnVbI,Sconehenge Bakery & Cafe,37.8586694,-122.2667667,Social Business,cafe,bakery; cafe; store; restaurant; food; point_of_interest; establishment,OPERATIONAL,4.5,393,NA
ChIJbf4yCDCOj4ARbfBXNL7zJtM,Alameda County Children's Memorial Flag and Grove Project,37.7216861,-122.1179618,Park,park,park; point_of_interest; establishment,OPERATIONAL,4.9,25,NA
ChIJbfm6JqZ-hYARKlvdO13O1Lo,Live Oak Park,37.884103,-122.2691889,Park,park,park; tourist_attraction; point_of_interest; establishment,OPERATIONAL,4.6,417,NA
ChIJbQoppJqHj4ARVdK38k8yc6I,Peet's Coffee,37.8262957,-122.2090064,Social Business,cafe,cafe; store; food; point_of_interest; establishment,OPERATIONAL,4.5,174,NA
ChIJBRSzIRaEj4ARtc3wlpUeDWc,Leydecker Park,37.7367137,-122.2415052,Park,park,park; tourist_attraction; point_of_interest; establishment,OPERATIONAL,4.3,122,NA
ChIJBTRjHlN-hYARI4ugONvexwg,Emeryville Crescent State Marine Reserve,37.8370897,-122.3090256,Park,park,tourist_attraction; park; point_of_interest; establishment,OPERATIONAL,4.6,25,NA
ChIJBV1vLbKAj4ARfUEOuPTjWdw,Latham Square,37.8059217,-122.2703955,Park,square,town_square,NA,NA,NA,NA
ChIJBwpBLr2Hj4ARs7wEmIuh8tA,A BetterMe Nutrition,37.7825903,-122.2235423,Social Business,cafe,cafe; food; point_of_interest; establishment,CLOSED_TEMPORARILY,5,1,TRUE
ChIJBwsTM26Pj4ARxJ2ZDjaC2W0,Equator Faith Mission,37.7473144,-122.1603807,Place of Worship,place of worship,church; place_of_worship; store; point_of_interest; establishment,OPERATIONAL,0,0,NA
ChIJBWwhhyx8hYAR7MA7zKml5x0,Found For Spiritual Freedom,37.8615124,-122.2591698,Place of Worship,place of worship,church; place_of_worship; point_of_interest; establishment,OPERATIONAL,0,0,NA
ChIJbXrAy4x-hYARlgUBfS2jW5E,Broom Bush Cafe,37.8567752,-122.2879966,Social Business,cafe,cafe; store; restaurant; food; point_of_interest; establishment,OPERATIONAL,4.4,289,NA
ChIJbxs4fhuGj4ARnNLClEAozXc,William Joseph McInnes Botanic Garden and Campus Arboretum,37.780709,-122.1803667,Park,garden,park; point_of_interest; establishment,OPERATIONAL,0,0,NA
ChIJByE7jhiHj4ARluZMaXxwr6Q,Deliverance Missionary Baptist Church,37.7926499,-122.245522,Place of Worship,place of worship,church; place_of_worship; point_of_interest; establishment,OPERATIONAL,4.8,4,NA
ChIJbYH3MtqAj4ARgM_Hkt4VLEE,College of Alameda Bookstore,37.7808735,-122.2793041,Social Business,bookstore,book_store; clothing_store; point_of_interest; store; establishment,OPERATIONAL,4.4,43,NA
ChIJByJiN3uHj4AR7f3MIO4MwtE,Piedmont Community Hall,37.8238106,-122.2306003,Community Space,city hall,local_government_office; point_of_interest; establishment,OPERATIONAL,4.5,8,NA
ChIJBywXTYV-hYARGABttofKXnI,Becky Temko Tot Park,37.8636709,-122.2759429,Park,park,park; tourist_attraction; point_of_interest; establishment,OPERATIONAL,4.7,67,NA
ChIJBzRMtW5-hYAR32tjh4LHmpQ,Oakland Public Library: Golden Gate Branch,37.8392134,-122.2822614,Community Space,library,library; point_of_interest; establishment,OPERATIONAL,4.5,40,NA
ChIJBZSymi2Hj4AR1A3q-i1px7E,Iron Giant Loft,37.7808438,-122.2366847,Community Space,community center,point_of_interest; establishment,OPERATIONAL,5,2,NA
ChIJC_95Y5SFj4ARFxSaPQvcFPY,Sala De Oracion,37.7209184,-122.1591573,Place of Worship,place of worship,place_of_worship; point_of_interest; establishment,OPERATIONAL,0,0,NA
ChIJC_wRCCR-hYARV0tMpYKm_ts,Raimondi Park,37.8160534,-122.2938148,Park,park,park; tourist_attraction; point_of_interest; establishment,OPERATIONAL,4,352,NA
ChIJC-XQPEmHj4ARPZ8_Z2dqzes,Easterbrook Fountain,37.806387,-122.2576256,Park,fountain,park; point_of_interest; establishment,OPERATIONAL,5,1,NA
ChIJc06giLWPj4ARWVQaXvkabR0,8-Twelve Oriental Market,37.712111,-122.1380601,Social Business,cafe,cafe; point_of_interest; food; establishment,OPERATIONAL,4.7,3,NA
ChIJC0Hun6mAj4ARIn736mHEbyk,25th Street Mini Park,37.814844,-122.2724523,Park,park,park; point_of_interest; establishment,CLOSED_TEMPORARILY,3.8,29,TRUE
ChIJc0ob-l6Hj4AR7m44DiuPp3Q,Linda Ave Dog Park,37.8223443,-122.2459184,Park,park,park; point_of_interest; establishment,OPERATIONAL,4.1,131,NA
ChIJC1ALR0mHj4ARIKKNtKaMNeE,Lakeside Park,37.808303,-122.2559061,Park,park,park; point_of_interest; establishment,OPERATIONAL,4.5,1213,NA
ChIJC1B3R_1_hYARZO8SEBl1WGY,Oxford Street Parklet,37.8703132,-122.2660673,Park,park,park; point_of_interest; establishment,OPERATIONAL,4.6,11,NA
ChIJc1X8W3SGj4ARN1NK4qlXDB8,Greater Miracle Temple,37.765986,-122.2007044,Place of Worship,place of worship,church; place_of_worship; point_of_interest; establishment,OPERATIONAL,5,3,NA
ChIJC2lqdL6Pj4ARLQwo-EEwUSE,East Oakland Collective,37.7666637,-122.167598,Community Space,community center,point_of_interest; establishment,OPERATIONAL,4.4,16,NA
ChIJc2ZZDbKAj4ARS7zvE5_cGbg,Bibliomania,37.80795690000001,-122.2698457,Social Business,bookstore,book_store; point_of_interest; store; establishment,OPERATIONAL,3.1,22,NA
ChIJc2ZZDbKAj4ARS7zvE5_cGbg,Bibliomania,37.80795690000001,-122.2698457,Social Business,bookstore,book_store; store; point_of_interest; establishment,OPERATIONAL,3.1,22,NA
ChIJC3GLFF9-hYARcNPCcn7Dk0g,Cafe Zambala,37.84798,-122.2920243,Social Business,cafe,restaurant; food; point_of_interest; establishment,OPERATIONAL,5,1,NA
ChIJC3K7_4uPj4ARKDk80TGemi8,85C Bakery Cafe - San Leandro,37.7246567,-122.1569738,Social Business,cafe,cafe; bakery; store; point_of_interest; food; establishment,OPERATIONAL,4.3,172,NA
ChIJc4kZZjSGj4ARWvMr8onUCXE,Avenue Terrace Park,37.8003079,-122.1918722,Park,park,park; point_of_interest; establishment,OPERATIONAL,4.4,20,NA
ChIJc4U-eZ9-hYAR5ih4d-bZpBI,Victory Point Cafe,37.8753638,-122.2686011,Social Business,cafe,cafe; point_of_interest; food; establishment,OPERATIONAL,4.7,692,NA
ChIJC70L7rKAj4ARrwpA3y3fzYA,Coco Cafe Oakland,37.8076912,-122.2673716,Social Business,cafe,cafe; bakery; store; restaurant; food; point_of_interest; establishment,OPERATIONAL,4.6,30,NA
ChIJC70L7rKAj4ARrwpA3y3fzYA,Coco Cafe Oakland,37.8076912,-122.2673716,Social Business,cafe,cafe; bakery; restaurant; store; food; point_of_interest; establishment,OPERATIONAL,4.6,30,NA
ChIJC7nBQ2CPj4ARQOWiPZyLLAs,Wo'se Community Church,37.7507119,-122.1729036,Place of Worship,place of worship,church; place_of_worship; point_of_interest; establishment,OPERATIONAL,4.8,4,NA
ChIJC9atBmSGj4ARufCwz7dEXf0,Highland Square,37.7726807,-122.2138963,Park,square,point_of_interest; establishment,OPERATIONAL,4.3,107,NA
ChIJc9CDbAWGj4ARZffkERVR6R4,Greater House of Prayer - COGIC,37.7756822,-122.1846934,Place of Worship,place of worship,church; place_of_worship; health; point_of_interest; establishment,OPERATIONAL,4.3,4,NA
ChIJc9CDbAWGj4ARZffkERVR6R4,Greater House of Prayer - COGIC,37.7756822,-122.1846934,Place of Worship,place of worship,church; place_of_worship; point_of_interest; health; establishment,OPERATIONAL,4.3,4,NA
ChIJc9iiurOAj4ARtdVrkHQGZiQ,Odin Readers,37.8058986,-122.2689636,Social Business,bookstore,book_store; point_of_interest; store; establishment,CLOSED_TEMPORARILY,0,0,TRUE
ChIJc9iiurOAj4ARtdVrkHQGZiQ,Odin Readers,37.8058986,-122.2689636,Social Business,bookstore,book_store; store; point_of_interest; establishment,CLOSED_TEMPORARILY,0,0,TRUE
ChIJcaICPBx-hYARtwL3LiD6iEQ,Linden Park,37.817764,-122.2813407,Park,park,park; point_of_interest; establishment,OPERATIONAL,3.5,4,NA
ChIJCajmCF-Gj4ARs7h7dEP-EQ8,Cesar Chavez Park,37.7793615,-122.2178009,Park,park,park; point_of_interest; establishment,OPERATIONAL,4,161,NA
ChIJcbEY-aB-hYAR9mvXIYF5YUE,Berkeley Worship Service,37.8784443,-122.2677287,Place of Worship,place of worship,church; place_of_worship; point_of_interest; establishment,OPERATIONAL,0,0,NA
ChIJCcrxwzmHj4ARz_l-jZZTXeU,Lakeside Temple-Practical,37.8008697,-122.2530985,Place of Worship,place of worship,church; place_of_worship; point_of_interest; establishment,OPERATIONAL,5,6,NA
ChIJcdGPDeF9hYARrf-L17vFVzY,The CRO Café,37.836013,-122.2618159,Social Business,cafe,cafe; store; food; point_of_interest; establishment,OPERATIONAL,4.4,87,NA
ChIJcdRddex9hYARq0FOoeczAjI,Wilder Art & Garden Center,37.8637093,-122.1898995,Community Space,community center,point_of_interest; establishment,OPERATIONAL,0,0,NA
ChIJCeoIuHt-hYAR0OZUwj2Gqxk,Alchemy Collective Cafe and Roaster,37.8487166,-122.2724868,Social Business,cafe,cafe; store; food; point_of_interest; establishment,OPERATIONAL,4.7,245,NA
ChIJcfH0-86Hj4ARK3Cg6CUPfRI,Joaquin Miller Community Center,37.8102796,-122.1840879,Community Space,community center,point_of_interest; establishment,OPERATIONAL,4.6,67,NA
ChIJCQ3rMQyGj4ARu29u9LHE6eM,Los The Pentecostals,37.7721103,-122.1924441,Place of Worship,place of worship,church; place_of_worship; point_of_interest; establishment,OPERATIONAL,5,1,NA
ChIJCQj13ACBj4ARCF9R__4BmxU,Mosaic Center,37.8071417,-122.2700444,Community Space,community center,point_of_interest; establishment,CLOSED_TEMPORARILY,0,0,TRUE
ChIJcQOdXb1-hYARoCqold8JN0A,Ohlone Park,37.8737618,-122.2716076,Park,park,park; tourist_attraction; point_of_interest; establishment,OPERATIONAL,4.4,513,NA
ChIJcR0xlEGEj4AROf_vmocAbNs,Why Cook? Cafe & Catering,37.72734,-122.2409556,Social Business,cafe,restaurant; food; point_of_interest; establishment,OPERATIONAL,3.9,113,NA
ChIJCU3HDpyAj4ARQfMl9DI6QHw,Zion First Church of God In Christ,37.806283,-122.2948846,Place of Worship,place of worship,church; place_of_worship; point_of_interest; establishment,OPERATIONAL,3.5,2,NA
ChIJcUct1jePj4ARa16qMD5zYC8,Sequoyah Community Church,37.7698367,-122.1514509,Place of Worship,place of worship,church; place_of_worship; health; point_of_interest; establishment,OPERATIONAL,4.7,15,NA
ChIJCUH7EKCAj4ARZ2MrDDdE_1w,Bobby Hutton Park,37.81187920000001,-122.2872134,Park,park,park; point_of_interest; establishment,OPERATIONAL,4.7,41,NA
ChIJCUKPPbeAj4ARR_FvqGVssYA,Caffe 817,37.8011222,-122.2748713,Social Business,cafe,cafe; food; point_of_interest; establishment,OPERATIONAL,4.5,327,NA
ChIJCVM6QTZ9hYARCv5oCXTuHes,Spectrum Church,37.8248207,-122.2654345,Place of Worship,place of worship,church; place_of_worship; point_of_interest; establishment,OPERATIONAL,0,0,NA
ChIJcVME0KuHj4AR-UzW22J4S58,Hive,37.8003407,-122.2165811,Social Business,cafe,cafe; food; point_of_interest; store; establishment,OPERATIONAL,4.5,251,NA
ChIJcVME0KuHj4AR-UzW22J4S58,Hive,37.8003407,-122.2165811,Social Business,cafe,cafe; store; food; point_of_interest; establishment,OPERATIONAL,4.5,251,NA
ChIJCVvCmKB-hYARsr-Bjxh06sM,Second Church of Christ Scientist,37.8799435,-122.2656301,Place of Worship,place of worship,church; place_of_worship; point_of_interest; establishment,OPERATIONAL,4.8,4,NA
ChIJcW9_pP99hYARvzlifi9xoHo,John A Graziano Memorial Lib,37.8212942,-122.26445820000001,Community Space,library,library; university; point_of_interest; establishment,OPERATIONAL,0,0,NA
ChIJcWpoTnWGj4AR6CnPFlM69Bw,Calvary Temple Assembly of God Church,37.7644272,-122.1977338,Place of Worship,place of worship,church; place_of_worship; point_of_interest; establishment,OPERATIONAL,0,0,NA
ChIJcwYAV-J9hYARXi9vMua4-1Q,Korean Community Center of the East Bay,37.7257773,-122.1563568,Community Space,community center,point_of_interest; establishment,OPERATIONAL,4.7,7,NA
ChIJcy2Xh3-Hj4ARmW8agiG4VNU,Paulista Açaí Café + Kitchen,37.8077519,-122.2221201,Social Business,cafe,cafe; store; restaurant; food; point_of_interest; establishment,OPERATIONAL,4.4,17,NA
ChIJcy2Xh3-Hj4ARmW8agiG4VNU,Paulista Açaí Café + Kitchen,37.8077519,-122.2221201,Social Business,cafe,cafe; restaurant; store; food; point_of_interest; establishment,OPERATIONAL,4.4,17,NA
ChIJcy8ftFOHj4AR37E1huFjLEI,First Congregational Church of Oakland,37.8134941,-122.2615448,Place of Worship,place of worship,church; place_of_worship; point_of_interest; establishment,OPERATIONAL,4.1,16,NA
ChIJCya1xLGAj4ARWIEvA-uxNEc,Cape and Cowl Comics,37.8067543,-122.2728389,Social Business,bookstore,book_store; point_of_interest; store; establishment,OPERATIONAL,4.8,353,NA
ChIJcyM56M6Hj4ARPh3u56X68vE,"Woodminster Cascade, Joaquin Miller Park",37.8106231,-122.1901385,Park,park,park; tourist_attraction; point_of_interest; establishment,OPERATIONAL,4.7,76,NA
ChIJCYmtv-mIj4ARWUJuK0kKeH0,Redwood Gate,37.8015495,-122.1445856,Park,park,park; point_of_interest; establishment,OPERATIONAL,4.8,64,NA
ChIJCz_XJL-Gj4ARmUj09T4TVBA,First Church of Christ Scientist,37.7660095,-122.2474461,Place of Worship,place of worship,church; place_of_worship; point_of_interest; establishment,OPERATIONAL,0,0,NA
ChIJczGcivKFj4ARS6j4MWrr9sM,Tassafaronga Recreation Center,37.7509259,-122.1846612,Community Space,community center,point_of_interest; establishment,OPERATIONAL,4.4,72,NA
ChIJCZk-5f59hYARPyoxocqrbHM,Mosswood Park,37.8239404,-122.2605625,Park,park,park; tourist_attraction; point_of_interest; establishment,OPERATIONAL,4.1,631,NA
ChIJCzW7iy58hYARTlOV_gLlxW8,People's Park,37.86576489999999,-122.2570668,Park,park,park; point_of_interest; establishment,OPERATIONAL,3.4,499,NA
ChIJczXJ051-hYAR5ICyF_2JT1g,Juice Appeal,37.8705016,-122.2679614,Park,square,food; point_of_interest; establishment,OPERATIONAL,4.3,52,NA
ChIJD-7mfXZ-hYARciJXzbzfeo4,Dover Park,37.8425845,-122.2681782,Park,park,park; tourist_attraction; point_of_interest; establishment,OPERATIONAL,4.2,111,NA
ChIJD-PS45F-hYARB__pvSms_KU,Homemade Cafe,37.8622769,-122.2814496,Social Business,cafe,restaurant; food; point_of_interest; establishment,OPERATIONAL,4.4,647,NA
ChIJd0WLdJKHj4ARjDSBkeEwyac,Dahlia Garden,37.8068071,-122.2589406,Park,garden,park; point_of_interest; establishment,OPERATIONAL,5,1,NA
ChIJD1DDY2-Pj4ARy4583NhUG5k,Verdese Carter Park,37.74912430000001,-122.1635245,Park,park,park; tourist_attraction; point_of_interest; establishment,OPERATIONAL,4.3,186,NA
ChIJD4vl2saGj4ARn0SOoD7Nml8,Livingwater Church,37.8611057,-122.252994,Place of Worship,place of worship,church; place_of_worship; point_of_interest; establishment,OPERATIONAL,4.5,8,NA
ChIJd5yDUMeFj4ARchYIPuqONSI,Edge Water Park Plaza,37.74368279999999,-122.2032752,Park,park,park; point_of_interest; establishment,OPERATIONAL,4.2,21,NA
ChIJd5Z1iJ5-hYARtFqIrhve_2I,Fantastic Comics,37.8756888,-122.273614,Social Business,bookstore,book_store; store; point_of_interest; establishment,OPERATIONAL,4.7,139,NA
ChIJd6GDSeh9hYARzOE9ZFRoYug,Atomic Garden,37.841263,-122.2515883,Park,garden,clothing_store; point_of_interest; store; establishment,OPERATIONAL,4.7,21,NA
ChIJD8k31Kp_hYARlKP6BnNhcOk,Mr.Mopps Children's Books,37.881329,-122.2738514,Social Business,bookstore,book_store; store; point_of_interest; establishment,OPERATIONAL,4.9,31,NA
ChIJd8qq0mqFj4ARy9AiP_E50wo,Oyster Bay Regional Shoreline,37.7081251,-122.1978038,Park,park,park; tourist_attraction; point_of_interest; establishment,OPERATIONAL,4.4,642,NA
ChIJD8VMdLGAj4ARGDu9_mtWQBk,City of Oakland Office of the Mayor,37.80509970000001,-122.2727052,Community Space,city hall,local_government_office; point_of_interest; establishment,OPERATIONAL,1.7,16,NA
ChIJD8VMdLGAj4ARx11ktCiV4AM,Oakland City Administration,37.8053046,-122.2725459,Community Space,city hall,local_government_office; point_of_interest; establishment,OPERATIONAL,4.5,2,NA
ChIJD97L4-R9hYARCbso0A4DlM4,North Oakland Recreation Center,37.8330527,-122.2570583,Park,park,park; point_of_interest; establishment,OPERATIONAL,4.3,14,NA
ChIJdaYy9wqPj4ARgE0Lh5JpjhM,Evangelical Temple Assemblies of God Church,37.7419837,-122.1493708,Place of Worship,place of worship,church; place_of_worship; point_of_interest; establishment,OPERATIONAL,0,0,NA
ChIJdbOGHWqHj4ARrlAI8n_cO7w,Mandana Plaza Park,37.8121996,-122.2417963,Park,park,park; tourist_attraction; point_of_interest; establishment,OPERATIONAL,4.2,47,NA
ChIJdbq9pZ6Ij4ARWuwbISgFOCo,East Hills Church,37.7954838,-122.1694699,Place of Worship,place of worship,church; place_of_worship; point_of_interest; establishment,OPERATIONAL,4.9,16,NA
ChIJDc1plKKHj4ARHY9ztCJzIxM,Waterloo Staging Area,37.8234535,-122.1866783,Park,park,park; point_of_interest; establishment,OPERATIONAL,4.7,6,NA
ChIJDcEscKyAj4ARd6gm3L0kdak,Embrace Church,37.7650148,-122.2441698,Place of Worship,place of worship,church; place_of_worship; point_of_interest; establishment,OPERATIONAL,0,0,NA
ChIJddRvRYuFj4ARuB7kPPzS9RY,Deliverance Temple Worship Center,37.7494703,-122.1794097,Place of Worship,place of worship,church; place_of_worship; point_of_interest; establishment,OPERATIONAL,0,0,NA
ChIJdeA_eVeJj4ARfVbC7_8bMrA,Little lending library,37.7730362,-122.1733943,Community Space,library,library; point_of_interest; establishment,OPERATIONAL,0,0,NA
ChIJdfi0x2iGj4ARhni6-YlnaOc,Prayer Tower Cogic,37.7757579,-122.2069931,Place of Worship,place of worship,church; place_of_worship; point_of_interest; establishment,OPERATIONAL,5,1,NA
ChIJDfx1aK2Aj4ARp57cZE6xvlU,Uptown Cafe & Crepe,37.8100695,-122.2671053,Social Business,cafe,cafe; store; restaurant; food; point_of_interest; establishment,CLOSED_TEMPORARILY,4.6,65,TRUE
ChIJDfx1aK2Aj4ARp57cZE6xvlU,Uptown Cafe & Crepe,37.8100695,-122.2671053,Social Business,cafe,cafe; restaurant; store; food; point_of_interest; establishment,CLOSED_TEMPORARILY,4.6,65,TRUE
ChIJDfXsNLCAj4ARRNo-kEOaO_Q,State Side Cafe,37.8061846,-122.2740126,Social Business,cafe,restaurant; point_of_interest; food; establishment,OPERATIONAL,4.4,17,NA
ChIJdRMiV-OGj4AR0CcBSveuC2o,The Gospel Chapel,37.7870445,-122.2320422,Place of Worship,place of worship,church; place_of_worship; point_of_interest; establishment,OPERATIONAL,0,0,NA
ChIJdSi6NFB-hYAR9KDnqzmsY-8,Square Z Research LLC,37.8376128,-122.3021949,Park,square,point_of_interest; establishment,OPERATIONAL,0,0,NA
ChIJdUxtGy1_hYARR_sfJqUtdRo,Tiny Church,37.8597796,-122.2872974,Place of Worship,place of worship,church; place_of_worship; point_of_interest; establishment,OPERATIONAL,0,0,NA
ChIJdVqJnkqHj4AR5jFswYW-4h0,Oakland History Room,37.8009514,-122.2636808,Community Space,library,library; museum; point_of_interest; establishment,OPERATIONAL,0,0,NA
ChIJDwkJ1WaBj4AR5HRD9XUQUOQ,Alameda Landing Park,37.7864222,-122.2827331,Park,park,park; point_of_interest; establishment,OPERATIONAL,0,0,NA
ChIJdwOuqn5-hYARj0bLYaWu8Zk,Rasa Caffe,37.8510078,-122.2709141,Social Business,cafe,cafe; store; food; point_of_interest; establishment,OPERATIONAL,4.6,237,NA
ChIJdwx1ljaHj4AR7bvC65ufWaU,Word of Faith Christian,37.798679,-122.258249,Place of Worship,place of worship,church; place_of_worship; point_of_interest; establishment,OPERATIONAL,0,0,NA
ChIJdxd24vOPj4ARnPKW2LFnsdE,I.D.E.S. Alvarado Portuguese Hall of San Leandro,37.7259871,-122.165233,Community Space,community center,point_of_interest; establishment,CLOSED_TEMPORARILY,0,0,TRUE
ChIJDxmxxml-hYARTW8Bc2N3tkw,Doyle Street Cafe,37.8381838,-122.2869567,Social Business,cafe,restaurant; food; point_of_interest; establishment,OPERATIONAL,4.5,1005,NA
ChIJdxYVereAj4ARUs7Ut743-JI,parking,37.7997382,-122.276104,Park,park,park; point_of_interest; establishment,OPERATIONAL,0,0,NA
ChIJdyMO3Xt-hYARi5XpEuIGQzU,Vault Cafe,37.8494947,-122.2714712,Social Business,cafe,meal_takeaway; restaurant; food; point_of_interest; establishment,OPERATIONAL,4.3,396,NA
ChIJdyS0HrqAj4AR-514LFZeMHQ,New Destiny Church,37.8015207,-122.2778526,Place of Worship,place of worship,place_of_worship; point_of_interest; establishment,OPERATIONAL,4.8,16,NA
ChIJDz_Thwh-hYAR5k-pxUor0Xg,MLK Cafe,37.82849179999999,-122.2685725,Social Business,cafe,cafe; restaurant; food; point_of_interest; store; establishment,OPERATIONAL,4.5,284,NA
ChIJDz_Thwh-hYAR5k-pxUor0Xg,MLK Cafe,37.82849179999999,-122.2685725,Social Business,cafe,cafe; store; restaurant; food; point_of_interest; establishment,OPERATIONAL,4.5,284,NA
ChIJdZKSbLaAj4ARFanmZR3wS5I,Chinese Christian Truth Church,37.79966100000001,-122.2720426,Place of Worship,place of worship,church; place_of_worship; point_of_interest; establishment,OPERATIONAL,5,1,NA
ChIJdzqHsV1-hYARA_oQBIAe0bo,Ruby's Cafe,37.8433048,-122.2905977,Social Business,cafe,cafe; restaurant; food; point_of_interest; establishment,OPERATIONAL,4.6,139,NA
ChIJE-U7lCZ_hYARrxUn_PnLSS8,Nunu's Cafe,37.8134745,-122.2901632,Social Business,cafe,cafe; point_of_interest; food; establishment,OPERATIONAL,4.8,10,NA
ChIJe09S7keGj4ARBySfUPuFZIg,Fountain Garden,37.7914127,-122.1981929,Park,fountain,restaurant; food; point_of_interest; establishment,OPERATIONAL,4.1,99,NA
ChIJE0PZWH-Hj4ARX1fbI6pOitQ,Highwire Coffee Roasters,37.826439,-122.2094856,Social Business,cafe,cafe; store; food; point_of_interest; establishment,OPERATIONAL,4.6,36,NA
ChIJe3H3wMiHj4ARexdqYEuhX6U,Red Bay Coffee Roasters - Headquarters & Cafe,37.777945,-122.225901,Social Business,cafe,cafe; food; point_of_interest; store; establishment,OPERATIONAL,4.9,50,NA
ChIJe3XuPcV9hYARivtN8NRp2nY,Cole Coffee Bean + Retail Shop,37.8502053,-122.25257,Social Business,cafe,food; point_of_interest; store; establishment,OPERATIONAL,4.7,181,NA
ChIJE4aO9tWBj4ARnwnWTvg9xw0,Alameda City Hall West,37.7859525,-122.302892,Community Space,city hall,city_hall; local_government_office; point_of_interest; establishment,OPERATIONAL,0,0,NA
ChIJE5sbf7aAj4ARt8Bp-McloaQ,Oakland Chinese Book Store,37.8003066,-122.2709686,Social Business,bookstore,book_store; point_of_interest; store; establishment,OPERATIONAL,3.3,9,NA
ChIJE5sbf7aAj4ARypE-AKq0n90,Oakland Public Library,37.8009514,-122.2636808,Community Space,library,library; point_of_interest; establishment,OPERATIONAL,4.4,113,NA
ChIJe5yeoZWGj4ARphgrUlPpbtc,Jim's Coffee Shop,37.7668363,-122.2411053,Social Business,cafe,cafe; restaurant; food; point_of_interest; store; establishment,OPERATIONAL,4.3,1053,NA
ChIJe5yeoZWGj4ARphgrUlPpbtc,Jim's Coffee Shop,37.7668363,-122.2411053,Social Business,cafe,cafe; store; restaurant; food; point_of_interest; establishment,OPERATIONAL,4.3,1053,NA
ChIJE8b6LxN-hYAR19V15Gp7gys,Emeryville Recreation Department,37.8332658,-122.2802746,Community Space,community center,park; point_of_interest; establishment,OPERATIONAL,5,1,NA
ChIJE8b6LxN-hYAR19V15Gp7gys,Emeryville Recreation Department,37.8332658,-122.2802746,Park,park,park; point_of_interest; establishment,OPERATIONAL,5,1,NA
ChIJE92aHa2Hj4ARvMbiHPfX03A,Cross of Grace Christian Church,37.7254009,-122.149453,Place of Worship,place of worship,church; place_of_worship; point_of_interest; establishment,OPERATIONAL,3,2,NA
ChIJE9FxePJ-hYARFpiDhIMuoDg,Westside Organic Cafe,37.8589606,-122.2914965,Social Business,cafe,restaurant; food; point_of_interest; establishment,CLOSED_TEMPORARILY,4.4,24,TRUE
ChIJeaG_JkOPj4ARrrJKRmTquzY,Corners Cafe Youth Uprising,37.7578644,-122.1627919,Social Business,cafe,cafe; food; point_of_interest; establishment,CLOSED_TEMPORARILY,4.2,13,TRUE
ChIJeaG_JkOPj4ARrrJKRmTquzY,Corners Cafe Youth Uprising,37.7578644,-122.1627919,Social Business,cafe,cafe; point_of_interest; food; establishment,CLOSED_TEMPORARILY,4.2,13,TRUE
ChIJeaggFb6Gj4ARRMu1ovIYqrE,Twin Towers United Methodist,37.7650126,-122.2441714,Place of Worship,place of worship,church; place_of_worship; point_of_interest; establishment,OPERATIONAL,5,3,NA
ChIJEaqH8XGGj4ARm3e98Xd_Q7Y,Word of Faith Church,37.7706993,-122.20353,Place of Worship,place of worship,church; place_of_worship; point_of_interest; establishment,OPERATIONAL,5,2,NA
ChIJEbTHdUiGj4ARJp7_GTMNMUs,World Ground Cafe,37.7921078,-122.1989519,Social Business,cafe,cafe; food; point_of_interest; store; establishment,OPERATIONAL,4.2,194,NA
ChIJEbTHdUiGj4ARJp7_GTMNMUs,World Ground Cafe,37.7921078,-122.1989519,Social Business,cafe,cafe; store; food; point_of_interest; establishment,OPERATIONAL,4.2,194,NA
ChIJecuMJpSFj4ARb-eMn6HX8bg,Farley's Cafe,37.7114584,-122.2127992,Social Business,cafe,cafe; store; point_of_interest; food; establishment,OPERATIONAL,1.7,6,NA
ChIJecuMJpSFj4ARb-eMn6HX8bg,Farley's Cafe,37.7114584,-122.2127992,Social Business,cafe,cafe; store; food; point_of_interest; establishment,OPERATIONAL,1.7,6,NA
ChIJeehUNqF-hYARmbVCz9ygPko,Yali’s Qualcomm Café,37.8747057,-122.2587518,Social Business,cafe,cafe; point_of_interest; food; establishment,OPERATIONAL,4.2,15,NA
ChIJEeIzp-F9hYARAb2PODOZ73k,Mezzo,37.8661778,-122.2588202,Social Business,cafe,cafe; restaurant; food; point_of_interest; establishment,OPERATIONAL,4.6,668,NA
ChIJeeSywC58hYAR3kMU-ITdTUQ,Moe's Books,37.8655102,-122.2586633,Social Business,bookstore,book_store; store; point_of_interest; establishment,OPERATIONAL,4.7,772,NA
ChIJeeSywC58hYAROCJs5NOBDTM,More Moe's Art & Antiquarian,37.8655351,-122.2586693,Social Business,bookstore,book_store; home_goods_store; store; point_of_interest; establishment,OPERATIONAL,5,4,NA
ChIJeeSywC58hYAROCJs5NOBDTM,More Moe's Art & Antiquarian,37.8655351,-122.2586693,Social Business,bookstore,home_goods_store; book_store; store; point_of_interest; establishment,OPERATIONAL,5,4,NA
ChIJEfFONhZ-hYARaN-HjWaZyoI,Community Christian Church,37.8251997,-122.286784,Place of Worship,place of worship,church; place_of_worship; point_of_interest; establishment,OPERATIONAL,4.9,15,NA
ChIJERHKzuCFj4ARqqqh9bCx4Wk,Arroyo Viejo Creek,37.7623885,-122.1759269,Park,park,park; point_of_interest; establishment,OPERATIONAL,4.8,28,NA
ChIJERXAf-SGj4ARCxknswNND6Y,Garfield Park,37.7858459,-122.2342741,Park,park,park; point_of_interest; establishment,OPERATIONAL,3.9,34,NA
ChIJeSKSX6mHj4ARHeP_GrCiWTw,Starbucks,37.801472,-122.215393,Social Business,cafe,cafe; food; point_of_interest; store; establishment,OPERATIONAL,4.1,226,NA
ChIJeSKSX6mHj4ARHeP_GrCiWTw,Starbucks,37.801472,-122.215393,Social Business,cafe,cafe; store; food; point_of_interest; establishment,OPERATIONAL,4.1,226,NA
ChIJETDYV9-Aj4ARaAjCRJmXj_I,Alameda Bible Hall,37.7757849,-122.2829994,Place of Worship,place of worship,church; place_of_worship; point_of_interest; establishment,OPERATIONAL,0,0,NA
ChIJEUf9PJ6Aj4ARJNwtYtBIHW8,Cypress Freeway Memorial Park,37.8104377,-122.2921431,Park,park,park; point_of_interest; establishment,OPERATIONAL,4.3,46,NA
ChIJeVV7ykWEj4ARX-3au1Z2tK4,Element Youth Group,37.727661,-122.2333927,Place of Worship,place of worship,church; place_of_worship; point_of_interest; establishment,OPERATIONAL,0,0,NA
ChIJew4l2-WGj4ARGaGGNuv1uv8,"Lao Family Community Development, Inc",37.782155,-122.2365034,Community Space,community center,point_of_interest; establishment,OPERATIONAL,4.3,42,NA
ChIJeWa_TpyAj4AR8dLa7STqxxM,True Light Church of God,37.8073466,-122.295498,Place of Worship,place of worship,church; place_of_worship; point_of_interest; establishment,OPERATIONAL,5,3,NA
ChIJEX6V5fp9hYARlYsdPVOT4s4,Free Library Oakland,37.830061,-122.2562614,Community Space,library,library; point_of_interest; establishment,CLOSED_TEMPORARILY,0,0,TRUE
ChIJeXE0KJSPj4ARDGov2u6_HYA,Delight Cafe,37.7238638,-122.1545316,Social Business,cafe,cafe; restaurant; point_of_interest; food; establishment,OPERATIONAL,3.6,18,NA
ChIJEyQHw9h9hYAR_wb0vfrapKo,Bushrod Recreation Center,37.84538939999999,-122.2635426,Community Space,community center,point_of_interest; establishment,OPERATIONAL,4.4,52,NA
ChIJEyXPDXCGj4ARrr3ZR528O90,Hines Memorial Oakland Christ,37.7689642,-122.2081723,Place of Worship,place of worship,church; place_of_worship; point_of_interest; establishment,OPERATIONAL,5,3,NA
ChIJezLFtauHj4ARhC82e6SFMN0,Peet's Coffee,37.79935,-122.216705,Social Business,cafe,cafe; food; point_of_interest; store; establishment,OPERATIONAL,4.4,396,NA
ChIJezLFtauHj4ARhC82e6SFMN0,Peet's Coffee,37.79935,-122.216705,Social Business,cafe,cafe; store; food; point_of_interest; establishment,OPERATIONAL,4.4,396,NA
ChIJf_1B4kOHj4ARx2nqDeX8pkE,Splash Pad Park,37.8106789,-122.2477906,Park,park,park; tourist_attraction; point_of_interest; establishment,OPERATIONAL,4.5,169,NA
ChIJF-E_zPWFj4ARNvgx0blt-_U,Mt. Covenant Ministries,37.76166449999999,-122.1785743,Place of Worship,place of worship,place_of_worship; point_of_interest; establishment,OPERATIONAL,0,0,NA
ChIJF0eB88GAj4ARK7EcyG0E-28,"Estuary Park, Alameda",37.7896748,-122.2868987,Park,park,park; tourist_attraction; point_of_interest; establishment,OPERATIONAL,4.4,98,NA
ChIJF1h6IDGPj4ARyyo35fVLbrU,Berith Christian Fellowship,37.772458,-122.145246,Place of Worship,place of worship,church; place_of_worship; point_of_interest; establishment,OPERATIONAL,4.8,5,NA
ChIJf25faZuPj4ARO3Dbqr7IA-E,Faith Bible Church,37.73063459999999,-122.1617394,Place of Worship,place of worship,church; place_of_worship; point_of_interest; establishment,OPERATIONAL,1,1,NA
ChIJf2CkTkCGj4ARe9Q2afKIJl8,"Miracles of Faith Community Church, ELCA",37.7838184,-122.1995851,Place of Worship,place of worship,church; place_of_worship; point_of_interest; establishment,OPERATIONAL,4,3,NA
ChIJF30pSW6Gj4ARQB5henVAwuE,Greater Bethesda Church of God,37.77253899999999,-122.2053011,Place of Worship,place of worship,church; place_of_worship; point_of_interest; establishment,OPERATIONAL,4.5,6,NA
ChIJF3Pix_Z9hYAREl-3wI4BX_I,Timeless Coffee,37.8282129,-122.2497777,Social Business,cafe,bakery; restaurant; cafe; food; point_of_interest; store; establishment,OPERATIONAL,4.5,776,NA
ChIJF3Pix_Z9hYAREl-3wI4BX_I,Timeless Coffee,37.8282129,-122.2497777,Social Business,cafe,bakery; cafe; restaurant; food; store; point_of_interest; establishment,OPERATIONAL,4.5,776,NA
ChIJF4BsiyN8hYARLZ1vIPraljI,Kresge Engineering Library,37.8738432,-122.2583163,Community Space,library,library; point_of_interest; establishment,OPERATIONAL,4.7,13,NA
ChIJF5M8PVyHj4AR01WEkaDYSGc,Morcom Rose Garden,37.8200167,-122.2465611,Park,garden,park; point_of_interest; establishment,OPERATIONAL,4.7,762,NA
ChIJf8JP7mKHj4ARhSwQrrmgjc8,Cocobreeze Caribbean Restaurant and Bakery,37.7805969,-122.2058144,Social Business,cafe,bakery; cafe; restaurant; food; point_of_interest; store; establishment,OPERATIONAL,4.4,120,NA
ChIJfcFuXXR-hYARz4DCsOgl0tA,Earthly Coffee and Tea,37.8400417,-122.2694889,Social Business,cafe,cafe; meal_takeaway; store; restaurant; food; point_of_interest; establishment,OPERATIONAL,4.5,109,NA
ChIJfchz_56Gj4ARtBMMJjJOlpk,Krusi Park,37.7538813,-122.2404346,Park,park,park; tourist_attraction; point_of_interest; establishment,OPERATIONAL,4.5,311,NA
ChIJFdjwT3CPj4AR-QPPH0r_lNg,Bancroft Middle School Sports Field,37.7286015,-122.1478743,Park,park,park; point_of_interest; establishment,OPERATIONAL,4.2,18,NA
ChIJFdzZw9qAj4ARyhUTFJ-8DF0,Mariner Square Athletic Club,37.785975,-122.2794852,Park,square,gym; health; point_of_interest; establishment,OPERATIONAL,4.3,27,NA
ChIJFQRsb-SFj4ARobiGXoKaDPk,Lucky Dragon Cafe,37.7605951,-122.1895614,Social Business,cafe,meal_delivery; restaurant; food; point_of_interest; establishment,OPERATIONAL,4.3,275,NA
ChIJFRlGcHKHj4ARMgN4nWvppCI,Pupusería & Taquería Flor del Café,37.766585,-122.1972509,Social Business,cafe,restaurant; food; point_of_interest; establishment,OPERATIONAL,5,2,NA
ChIJfRtHQcWPj4ARmN3Fr9O6H8w,Starbucks,37.7148997,-122.1415669,Social Business,cafe,cafe; store; point_of_interest; food; establishment,OPERATIONAL,4.2,316,NA
ChIJfStHGkCHj4ARCqlzkU0u9gQ,Guatemaya Cafe,37.7717984,-122.2132886,Social Business,cafe,restaurant; food; point_of_interest; establishment,OPERATIONAL,3.8,6,NA
ChIJfTd7QvaBj4ARjW4Rr7fCYQA,"Spaces - California, Oakland - Spaces Jack London Square",37.7943231,-122.2753424,Park,square,real_estate_agency; point_of_interest; establishment,OPERATIONAL,3.8,8,NA
ChIJfU691qyAj4ARnyR8EjihUtQ,Wooden Table Cafe,37.8122081,-122.2660239,Social Business,cafe,cafe; restaurant; store; food; point_of_interest; establishment,OPERATIONAL,4.7,129,NA
ChIJfU691qyAj4ARnyR8EjihUtQ,Wooden Table Cafe,37.8122081,-122.2660239,Social Business,cafe,cafe; restaurant; food; point_of_interest; store; establishment,OPERATIONAL,4.7,129,NA
ChIJfUan3-J9hYAR1NP0t6exwm0,Fares Prophetic Church-Ethiopian Church in Oakland- Berkeley CA,37.8536794,-122.2604038,Place of Worship,place of worship,church; place_of_worship; point_of_interest; establishment,CLOSED_TEMPORARILY,5,1,TRUE
ChIJFUhqVpl-hYARznadUAreJeU,Berkeley Parks & Recreation,37.8701543,-122.2712312,Park,park,park; point_of_interest; establishment,OPERATIONAL,5,1,NA
ChIJfUKDvIqFj4AR-JpwHE2mIok,House of Truth,37.7505313,-122.1753327,Place of Worship,place of worship,church; place_of_worship; point_of_interest; establishment,OPERATIONAL,4.7,3,NA
ChIJFUyHWwSGj4ARabUjz5kxCe4,International Faith Center,37.7751935,-122.1819781,Place of Worship,place of worship,church; place_of_worship; point_of_interest; establishment,OPERATIONAL,5,2,NA
ChIJfV0QyLeHj4AR13TqGVBXB-0,Oakland Inter-Stake Center Events Office,37.8091766,-122.1985815,Place of Worship,place of worship,church; place_of_worship; point_of_interest; establishment,OPERATIONAL,4.9,82,NA
ChIJFVaSPhx-hYARKmSlRgD57Xc,Linden Playground,37.817945,-122.2817376,Park,park,park; point_of_interest; establishment,OPERATIONAL,3,3,NA
ChIJfVEYxy58hYAROvgFvzEwaUk,The Upper Room Prayer House,37.8655637,-122.2587518,Place of Worship,place of worship,church; place_of_worship; point_of_interest; establishment,OPERATIONAL,5,1,NA
ChIJfVhfXi6Pj4AR8WIisTV6Shs,Greater Grace Temple Church of San Leandro CA,37.7376716,-122.1658606,Place of Worship,place of worship,church; place_of_worship; point_of_interest; establishment,OPERATIONAL,4.7,9,NA
ChIJFwIjpa-Aj4AR_jVD2L6XKLg,New Revelation Comm Church Office,37.80878999999999,-122.274747,Place of Worship,place of worship,church; place_of_worship; point_of_interest; establishment,OPERATIONAL,0,0,NA
ChIJfyBvDzB8hYARa-2_ekvKxf8,Robbins Collection Library,37.8703261,-122.2532869,Community Space,library,library; point_of_interest; establishment,OPERATIONAL,5,1,NA
ChIJfYOiEo6Pj4ARjDYkHVrMLXk,Thrasher Park,37.721862,-122.1648117,Park,park,park; tourist_attraction; point_of_interest; establishment,OPERATIONAL,4.2,241,NA
ChIJFYt8PF6Bj4ARmheAiEChzis,Center Street Community Garden and Chicken Ranch,37.8066932,-122.2941814,Park,garden,park; point_of_interest; establishment,OPERATIONAL,0,0,NA
ChIJfytUoEOHj4AR3ka7vEkJbSg,Walden Pond Books,37.8129111,-122.2466713,Social Business,bookstore,book_store; electronics_store; home_goods_store; store; point_of_interest; establishment,OPERATIONAL,4.7,488,NA
ChIJfytUoEOHj4AR3ka7vEkJbSg,Walden Pond Books,37.8129111,-122.2466713,Social Business,bookstore,book_store; home_goods_store; electronics_store; store; point_of_interest; establishment,OPERATIONAL,4.7,488,NA
ChIJfZccB-F9hYARNi--kr6NJmI,Temescal Square,37.8364754,-122.2622929,Park,square,point_of_interest; establishment,OPERATIONAL,4.5,30,NA
ChIJFZLL5s19hYAR-PoPkSWG7yc,Timeless Coffee,37.8568302,-122.2529102,Social Business,cafe,cafe; store; restaurant; food; point_of_interest; establishment,OPERATIONAL,4.7,270,NA
ChIJFzWl-NiPj4ARVNItQR_6P3Q,World revival mission Inc,37.7533612,-122.1681789,Place of Worship,place of worship,church; place_of_worship; point_of_interest; establishment,OPERATIONAL,0,0,NA
ChIJg-FMmXh-hYARGwqAr35SiIo,Dry Garden Nursery,37.8513476,-122.2657189,Park,garden,store; point_of_interest; establishment,OPERATIONAL,4.7,99,NA
ChIJg-FMmXh-hYARGwqAr35SiIo,Dry Garden Nursery,37.8513476,-122.2657189,Park,garden,point_of_interest; store; establishment,OPERATIONAL,4.7,99,NA
ChIJg-LfEDB8hYARHk_Dyy9VT-k,UC Berkeley School of Law Bookstore,37.8699767,-122.2532914,Social Business,bookstore,book_store; clothing_store; store; point_of_interest; establishment,OPERATIONAL,4.2,6,NA
ChIJg-vqn5uPj4ARUKU0PDrMtDI,8-Twelve Oriental Market,37.7309603,-122.1603236,Social Business,cafe,cafe; food; store; point_of_interest; establishment,OPERATIONAL,4.6,322,NA
ChIJg-vqn5uPj4ARUKU0PDrMtDI,8-Twelve Oriental Market,37.7309603,-122.1603236,Social Business,cafe,cafe; store; food; point_of_interest; establishment,OPERATIONAL,4.6,322,NA
ChIJg0Jpr7aIj4AR_5C4iUm4JQ8,His Gospel Ministries Inc,37.755248,-122.1609745,Place of Worship,place of worship,church; place_of_worship; point_of_interest; establishment,OPERATIONAL,0,0,NA
ChIJG1xfM899hYARfrx1-OhOLQM,Souvenir Coffee Co.,37.854602,-122.248444,Social Business,cafe,cafe; food; point_of_interest; store; establishment,OPERATIONAL,4.7,119,NA
ChIJG5e13yx8hYARtyq-Kr8-lcQ,Willard Park,37.8610841,-122.2566194,Park,park,park; tourist_attraction; point_of_interest; establishment,OPERATIONAL,4.5,429,NA
ChIJg5hdmuqBj4AR0CXbb9WBG-M,Haydee Cafe Co.,37.8007417,-122.2711643,Social Business,cafe,cafe; food; point_of_interest; establishment,OPERATIONAL,0,0,NA
ChIJg60q71CPj4ARXnBj-IcNcjQ,Uhuru House,37.7651004,-122.1671368,Community Space,community center,point_of_interest; establishment,CLOSED_TEMPORARILY,4.5,14,TRUE
ChIJG61bj0aHj4ARexTcOQkqjG8,Temple of the bones,37.8088776,-122.2508024,Place of Worship,place of worship,place_of_worship; point_of_interest; establishment,OPERATIONAL,0,0,NA
ChIJG6b0u5WPj4ARgwl_fItw3Iw,i-Tea San Leandro,37.7227248,-122.1542277,Social Business,cafe,cafe; point_of_interest; food; establishment,OPERATIONAL,4.4,391,NA
ChIJG6Q8Khd-hYARBB-kEhkb1M4,Union Plaza Park,37.8258597,-122.2827083,Park,park,park; point_of_interest; establishment,OPERATIONAL,4,13,NA
ChIJG7tNo-qHj4ARDr9OjaspkE0,Diamond Links,37.7991985,-122.2580264,Place of Worship,place of worship,church; place_of_worship; point_of_interest; establishment,OPERATIONAL,0,0,NA
ChIJG8zHGgCHj4ARGRz3-QFr0ac,Sausal Creek @ Wood Park,37.7953325,-122.220764,Park,park,park; point_of_interest; establishment,OPERATIONAL,5,1,NA
ChIJg97nBsyHj4ARdab4X4YK8-k,Haul u need yard services,37.7677404,-122.2190534,Park,garden,park; point_of_interest; establishment,CLOSED_TEMPORARILY,0,0,TRUE
ChIJgabTWi-Oj4ARYXwovQQ3m3s,Fresh Start Cafe,37.7165545,-122.1187529,Social Business,cafe,cafe; food; point_of_interest; establishment,CLOSED_TEMPORARILY,0,0,TRUE
ChIJGaLU88yAj4ARWtSOGyc9LC4,Peerless Coffee & Tea,37.793224,-122.2673879,Social Business,cafe,cafe; store; point_of_interest; food; establishment,OPERATIONAL,4.6,206,NA
ChIJgcmpNieEj4ARewLECv6cfj8,Towata Park City of Alameda,37.7503306,-122.2366676,Park,park,park; point_of_interest; establishment,OPERATIONAL,4.5,33,NA
ChIJGdb3bGSBj4AR75x8v_ZdxwI,Neptune Park,37.7826162,-122.2759113,Park,park,park; point_of_interest; establishment,OPERATIONAL,0,0,NA
ChIJGeVUQxeHj4ARbTfet2xaOek,Friends of Bella Vista Park,37.7997433,-122.2380639,Park,park,park; tourist_attraction; point_of_interest; establishment,OPERATIONAL,4.5,72,NA
ChIJgf6_6z2Ej4ARUEqZIjpxAag,Bay Farm Island Library,37.73694890000001,-122.2415846,Community Space,library,library; point_of_interest; establishment,OPERATIONAL,4.1,11,NA
ChIJGQ-VFiuHj4AR3s9-ouBw-3Q,The Romo Cafe,37.7716243,-122.2009827,Social Business,cafe,cafe; food; store; point_of_interest; establishment,OPERATIONAL,5,6,NA
ChIJGQ-VFiuHj4AR3s9-ouBw-3Q,The Romo Cafe,37.7716243,-122.2009827,Social Business,cafe,cafe; food; point_of_interest; store; establishment,OPERATIONAL,5,6,NA
ChIJgQJEgnKGj4ARTHDN8e5AEV4,Fairfax Lighthouse Community Church,37.772426,-122.1998635,Place of Worship,place of worship,church; place_of_worship; point_of_interest; establishment,OPERATIONAL,0,0,NA
ChIJgQsekIqFj4ARyLTvvErIzO8,Thomas Malero Park,37.7638246,-122.1933792,Park,park,park; point_of_interest; establishment,OPERATIONAL,4,1,NA
ChIJgRI_5r2Gj4ARy63fzuW1A2k,The Local,37.7633392,-122.2437682,Social Business,cafe,cafe; food; point_of_interest; store; establishment,OPERATIONAL,4.6,232,NA
ChIJgRI_5r2Gj4ARy63fzuW1A2k,The Local,37.7633392,-122.2437682,Social Business,cafe,cafe; store; food; point_of_interest; establishment,OPERATIONAL,4.6,232,NA
ChIJGTiyrgyPj4ARiXFLQ0Q9I9Q,Foothill Square,37.7450252,-122.1511873,Park,square,neighborhood; political,NA,NA,NA,NA
ChIJgTyHPFSPj4ARvMxkRHkPGF8,Prayer Mission Christ Holy Church,37.76797130000001,-122.170576,Place of Worship,place of worship,church; place_of_worship; point_of_interest; establishment,OPERATIONAL,5,1,NA
ChIJGUQ5LumPj4ARjUcrdl9Y2Y8,East Oakland Assembly Pentecostal Church,37.7742037,-122.158476,Place of Worship,place of worship,church; place_of_worship; point_of_interest; establishment,OPERATIONAL,0,0,NA
ChIJGWelA4l-hYARRShfO0hOInA,Spiral Gardens,37.85558,-122.279875,Park,garden,point_of_interest; establishment,OPERATIONAL,4.9,31,NA
ChIJGxIZkDiGj4ARCFUCRdvls_o,Cafe Santana Roasting Company,37.7896137,-122.196678,Social Business,cafe,cafe; food; point_of_interest; store; establishment,OPERATIONAL,4.7,241,NA
ChIJGxIZkDiGj4ARCFUCRdvls_o,Cafe Santana Roasting Company,37.7896137,-122.196678,Social Business,cafe,cafe; store; food; point_of_interest; establishment,OPERATIONAL,4.7,241,NA
ChIJGxW97Rx8hYARrmWBykD0ryE,Codornices Park,37.8853382,-122.2618439,Park,park,park; tourist_attraction; point_of_interest; establishment,OPERATIONAL,4.7,679,NA
ChIJgyb6jhKFj4ARv575NL5_-WU,Garden House,37.7311449,-122.1922185,Park,garden,florist; store; point_of_interest; establishment,CLOSED_TEMPORARILY,0,0,TRUE
ChIJgYnLPSeBj4ARorrvCUwMmRY,Longfellow Park,37.7747259,-122.2811616,Park,park,park; point_of_interest; establishment,OPERATIONAL,4.5,84,NA
ChIJgz_lir-Fj4AR2HCWC1HinRQ,Harrington Park,37.7312692,-122.2386208,Park,park,park; point_of_interest; establishment,OPERATIONAL,4.5,11,NA
ChIJh_-ef5CFj4ARYJvacu-cqnc,Oakland Public Library: Brookfield Branch,37.7376036,-122.1884874,Community Space,library,library; point_of_interest; establishment,OPERATIONAL,4.8,25,NA
ChIJh_8-SRZ_hYAR3m8csqUNCSw,Old Berkeley City Hall,37.8692479,-122.2731774,Community Space,city hall,point_of_interest; establishment,CLOSED_TEMPORARILY,5,2,TRUE
ChIJH_KOFuSGj4AR2LGFxQI3vdM,Word Assembly,37.78410179999999,-122.2354518,Place of Worship,place of worship,church; place_of_worship; point_of_interest; establishment,OPERATIONAL,4.8,22,NA
ChIJH0XTux-Hj4ARMtXGuw0MHho,San Antonio Recreation Center,37.7892868,-122.2404088,Community Space,community center,point_of_interest; establishment,CLOSED_TEMPORARILY,3.7,21,TRUE
ChIJh0yGcfd9hYARYTS6Jo3jJi8,Caffè Chiave,37.8262699,-122.2529285,Social Business,cafe,cafe; restaurant; food; point_of_interest; store; establishment,OPERATIONAL,4.3,413,NA
ChIJh0yGcfd9hYARYTS6Jo3jJi8,Caffè Chiave,37.8262699,-122.2529285,Social Business,cafe,cafe; restaurant; food; store; point_of_interest; establishment,OPERATIONAL,4.3,413,NA
ChIJh0yGcfd9hYARYTS6Jo3jJi8,Caffè Chiave,37.8262699,-122.2529285,Social Business,cafe,cafe; store; restaurant; food; point_of_interest; establishment,OPERATIONAL,4.3,413,NA
ChIJH1Zb0pWPj4ARSLguYIKtLQc,T4,37.7237859,-122.1547022,Social Business,cafe,cafe; point_of_interest; food; establishment,OPERATIONAL,3.8,266,NA
ChIJh2kN_pyAj4ARUgmGuUX-h1g,Bottom's Up West Oakland,37.8071938,-122.2970896,Park,garden,park; point_of_interest; establishment,OPERATIONAL,4.3,17,NA
ChIJH2UjebiGj4ARIC3pqLIi5cQ,Encinal Nursery,37.7660055,-122.2515613,Park,garden,point_of_interest; establishment,OPERATIONAL,4.7,128,NA
ChIJh2uxOWF9hYARyP6kLqYshF8,RIDE Bar,37.8307671,-122.246283,Social Business,cafe,cafe; food; point_of_interest; establishment,OPERATIONAL,4.8,8,NA
ChIJH3qzDFt-hYARdZWwToJiTHc,Comeback Cafe,37.8406186,-122.2951918,Social Business,cafe,cafe; food; point_of_interest; establishment,CLOSED_TEMPORARILY,3.8,12,TRUE
ChIJh4bticiAj4ARWq51mwQd95E,Jack London Square,37.7943674,-122.2760914,Park,square,lodging; restaurant; food; point_of_interest; establishment,OPERATIONAL,4.5,6559,NA
ChIJh6x3bhB-hYARPjKZ7Y58Prw,SPARC-it-Place!,37.825551,-122.278513,Community Space,community center,point_of_interest; establishment,OPERATIONAL,5,3,NA
ChIJH70wWCGHj4ARgaSTDx1XKmY,Brooklyn Preserve,37.791279,-122.247602,Community Space,community center,point_of_interest; establishment,CLOSED_TEMPORARILY,3.9,9,TRUE
ChIJH7iBKDiHj4AReaJWVQeyqe4,Pine Knoll Park,37.802031,-122.2539236,Park,park,park; tourist_attraction; point_of_interest; establishment,OPERATIONAL,4.5,275,NA
ChIJH8aa0UaHj4ARSHFM1PAedKU,Cafe Lakeview,37.8082194,-122.2488333,Social Business,cafe,cafe; restaurant; food; point_of_interest; establishment,OPERATIONAL,4.3,120,NA
ChIJH8p_NMh9hYARPOdN5E4qeCk,Oak Park,37.8568769,-122.243675,Park,park,park; point_of_interest; establishment,OPERATIONAL,3.9,13,NA
ChIJH9tSH5yPj4ARdP_ghMiuiU0,McCartney Park,37.7339238,-122.1577519,Park,park,park; tourist_attraction; point_of_interest; establishment,OPERATIONAL,4.4,88,NA
ChIJhcaLLRWGj4ARerPFpDlc51E,The Church of Jesus Christ of Latter-day Saints,37.781368,-122.196878,Place of Worship,place of worship,church; place_of_worship; point_of_interest; establishment,OPERATIONAL,4.4,7,NA
ChIJhedO8fCFj4ARMgCB5xSJmQQ,Dancey Memorial COGIC,37.7570557,-122.1821623,Place of Worship,place of worship,church; place_of_worship; point_of_interest; establishment,OPERATIONAL,5,7,NA
ChIJHeFcnbSPj4ARp47fbUX5M3s,Chabot Park,37.7313927,-122.126262,Park,park,park; tourist_attraction; point_of_interest; establishment,OPERATIONAL,4.7,1116,NA
ChIJHeLikH2Hj4ARsefmIeq9dbg,Blair Park,37.8295001,-122.2276451,Park,park,park; tourist_attraction; point_of_interest; establishment,OPERATIONAL,4,25,NA
ChIJHetWD1J9hYARHCfFuLFeh9M,Shalom's Cafe & Donuts,37.8405852,-122.264683,Social Business,cafe,cafe; food; point_of_interest; establishment,OPERATIONAL,4.4,54,NA
ChIJhfH2xf-Gj4ARTxSIZ2E3D6A,Oakland Garden Center,37.7935605,-122.2221209,Park,garden,park; point_of_interest; establishment,OPERATIONAL,0,0,NA
ChIJHQBfUISHj4ARo93xamzDtRU,Montclair Recreation Center,37.8295127,-122.2130183,Community Space,community center,point_of_interest; establishment,OPERATIONAL,4.3,135,NA
ChIJhQou9uB9hYARgrarh1R17fU,Cheryl Ward Ministries,37.8376587,-122.2625136,Place of Worship,place of worship,church; place_of_worship; point_of_interest; establishment,OPERATIONAL,0,0,NA
ChIJhQQqIbyPj4ARAXd42GQVHNI,Praises of Zion Missionary Baptist Church,37.7263766,-122.1477017,Place of Worship,place of worship,church; place_of_worship; point_of_interest; establishment,OPERATIONAL,4.8,12,NA
ChIJHQRe2-yAj4ARmPlk74phFoc,Main Street Dog Park,37.790036,-122.2959561,Park,park,park; point_of_interest; establishment,OPERATIONAL,4.2,124,NA
ChIJhQxGvGd9hYARDYpVyN6Y_BM,Sibley Volcanic Regional Preserve,37.8541078,-122.2038942,Park,park,tourist_attraction; park; point_of_interest; establishment,OPERATIONAL,4.7,1188,NA
ChIJHQXpIiR8hYARqKk0ptub3CM,Doe Library,37.8722068,-122.2592367,Community Space,library,library; point_of_interest; establishment,OPERATIONAL,4.8,35,NA
ChIJhRo9wSSHj4ARGYN0YkrZe90,Bible Fellowship Missionary Baptist,37.7943712,-122.249993,Place of Worship,place of worship,church; place_of_worship; point_of_interest; establishment,OPERATIONAL,4.7,12,NA
ChIJHRUjvgmHj4ARGv02MrcQa7w,Blackberry Bistro,37.8075535,-122.2215673,Social Business,cafe,restaurant; food; point_of_interest; establishment,OPERATIONAL,4.1,166,NA
ChIJhTWOrJaPj4ARFtEu5zE-mtU,True Jesus Church in East Bay,37.7238633,-122.1572733,Place of Worship,place of worship,church; place_of_worship; point_of_interest; establishment,OPERATIONAL,4.7,3,NA
ChIJhwDaBxWHj4ARmghy_NRc4eQ,Channel Park,37.7957246,-122.2602601,Park,park,park; point_of_interest; establishment,OPERATIONAL,4.3,3,NA
ChIJhwF3sZqHj4ARyJZh7Q9YppU,Starbucks,37.825863,-122.20934,Social Business,cafe,cafe; store; food; point_of_interest; establishment,OPERATIONAL,4.2,184,NA
ChIJHWreK6aAj4ARW-aXJ-RFQMI,Faith Healing Prayer Dlvrnc,37.8131876,-122.276954,Place of Worship,place of worship,church; place_of_worship; point_of_interest; establishment,OPERATIONAL,0,0,NA
ChIJHwY5arOAj4ARiPsDim8tQ_s,Dan F Webb Books,37.8042295,-122.2676044,Social Business,bookstore,book_store; point_of_interest; store; establishment,OPERATIONAL,4.6,18,NA
ChIJHwY5arOAj4ARiPsDim8tQ_s,Dan F Webb Books,37.8042295,-122.2676044,Social Business,bookstore,book_store; store; point_of_interest; establishment,OPERATIONAL,4.6,18,NA
ChIJHXmRQVWHj4ARJK7KqaIC-5k,Oaklandia Cafe,37.8186566,-122.2641197,Social Business,cafe,cafe; food; point_of_interest; establishment,OPERATIONAL,4.8,58,NA
ChIJHY-9_56Fj4AR4wvqO83erWc,Starbucks,37.7299246,-122.1942266,Social Business,cafe,cafe; food; point_of_interest; store; establishment,OPERATIONAL,4,684,NA
ChIJhyeU5ZaGj4AR15XRaVEA0kA,Chef M cafe inside the Everest Market,37.7635543,-122.2388717,Social Business,cafe,cafe; food; point_of_interest; establishment,CLOSED_TEMPORARILY,0,0,TRUE
ChIJhyf4pSF8hYARaA4M6AmmaGg,Flora Lamson Hewlett Library,37.8755765,-122.2618611,Community Space,library,library; point_of_interest; establishment,CLOSED_TEMPORARILY,0,0,TRUE
ChIJHZUW_L2Gj4ARh1P3KSAediY,Rocket Reuse,37.763957,-122.243314,Social Business,bookstore,book_store; electronics_store; clothing_store; home_goods_store; point_of_interest; store; establishment,OPERATIONAL,4.7,146,NA
ChIJHZUW_L2Gj4ARh1P3KSAediY,Rocket Reuse,37.763957,-122.243314,Social Business,bookstore,book_store; home_goods_store; electronics_store; clothing_store; store; point_of_interest; establishment,OPERATIONAL,4.7,146,NA
ChIJi_A3BJCPj4ARCBYLxoWeAX4,Fifth Wheel Food,37.7262453,-122.1627644,Social Business,cafe,meal_takeaway; restaurant; food; point_of_interest; establishment,OPERATIONAL,4.5,717,NA
ChIJI_cfNniPj4AR1ZeBCcA9prw,Durant Square Bingo,37.7375686,-122.164666,Park,square,point_of_interest; establishment,OPERATIONAL,4.1,292,NA
ChIJi-vLtWiGj4ARVYk_SC_jq28,Melrose Assembly of God Church,37.77520610000001,-122.2074676,Place of Worship,place of worship,church; place_of_worship; point_of_interest; establishment,OPERATIONAL,0,0,NA
