place_id,name,lat,lng,type,term,categories,business_status,rating,user_ratings_total,permanently_closed
ChIJ_____1sQsocROf528mna6v0,Fusion Church,35.480014,-97.5175719,Place of Worship,place of worship,church; place_of_worship; point_of_interest; establishment,OPERATIONAL,0,0,NA
ChIJ____LnwasocRhZO-f7IiE2A,Oklahoma Church Planting,35.5094695,-97.5648159,Place of Worship,place of worship,church; place_of_worship; point_of_interest; establishment,OPERATIONAL,0,0,NA
ChIJ___PW8QQsocRgTR3JyUFL1w,Saved by Grace Ministries,35.4756022,-97.53915219999999,Place of Worship,place of worship,church; place_of_worship; point_of_interest; establishment,OPERATIONAL,4.2,12,NA
ChIJ__-_CLMUsocR2HYraCECv0E,No Excuses Ministries,35.4253349,-97.5602284,Place of Worship,place of worship,church; place_of_worship; point_of_interest; establishment,OPERATIONAL,0,0,NA
ChIJ__-vzwYXsocROuWOF8NfeAI,okse cogic,35.4709429,-97.484917,Place of Worship,place of worship,church; place_of_worship; point_of_interest; establishment,OPERATIONAL,0,0,NA
ChIJ__8PvBwUsocRHImxHoim8Vo,DOMINION CHRISTIAN CENTER,35.4151816,-97.5128373,Place of Worship,place of worship,church; place_of_worship; point_of_interest; establishment,OPERATIONAL,5,1,NA
ChIJ__8TdvATsocRPIdQDNylOXs,Cox Characters,35.40738,-97.5337996,Community Space,library,library; point_of_interest; establishment,OPERATIONAL,0,0,NA
ChIJ__9D6WoEsocRf7FlbLTwy_E,"Community-Based Health, Education and Rehabilitation",35.5636642,-97.6748834,Community Space,community center,health; point_of_interest; establishment,OPERATIONAL,0,0,NA
ChIJ__Xg2PcTsocRtI_bCWS37vw,Sherri's Diner,35.4058948,-97.5259655,Social Business,cafe,restaurant; food; point_of_interest; establishment,OPERATIONAL,4.6,1285,NA
ChIJ_-TcvcMLsocRRlU7ZR-CmsM,Jimmy's Egg,35.3922339,-97.7235932,Social Business,cafe,restaurant; food; point_of_interest; establishment,OPERATIONAL,3.8,369,NA
ChIJ_-tLXsQXsocR1wNwShmYWCc,Square Business,35.448925,-97.54755229999999,Park,square,point_of_interest; establishment,OPERATIONAL,0,0,NA
ChIJ_19GOdIPsocRvET4_jRrP5k,Starbucks,35.460963,-97.620272,Social Business,cafe,cafe; restaurant; food; point_of_interest; store; establishment,OPERATIONAL,4.1,1435,NA
ChIJ_1zynOw9socRiZMoy7tr2Bo,Walmart Patio & Garden Services,35.495778,-97.369339,Park,garden,general_contractor; point_of_interest; establishment,OPERATIONAL,0,0,NA
ChIJ_2FV07MZsocRMmUVm0mcGfw,Coles Garden,35.5374417,-97.4861722,Park,garden,point_of_interest; establishment,OPERATIONAL,4.8,258,NA
ChIJ_3N2qhoKsocRbEz3pnXiQ60,Mychurch,35.3919792,-97.77398509999999,Place of Worship,place of worship,church; place_of_worship; point_of_interest; establishment,OPERATIONAL,4.9,13,NA
ChIJ_6giSWwRsocRKmicPY91wgQ,Burritos,35.4350219,-97.5540467,Social Business,cafe,restaurant; food; point_of_interest; establishment,OPERATIONAL,0,0,NA
ChIJ_b7S17gQsocRoQpYGRLMDFY,The Parish,35.486689,-97.547985,Place of Worship,place of worship,church; place_of_worship; point_of_interest; establishment,OPERATIONAL,4.1,16,NA
ChIJ_bKmP-ASsocRLl-DVwc9bp8,Earlywine Park,35.3494601,-97.5698675,Park,park,park; tourist_attraction; point_of_interest; establishment,OPERATIONAL,4.5,1248,NA
ChIJ_bL4PzsfsocRNCe-byxOQrc,Oklahoma Christian Campus Store,35.6127474,-97.4695814,Social Business,bookstore,book_store; point_of_interest; store; establishment,OPERATIONAL,4.5,6,NA
ChIJ_dAPeycUsocROKmc0SFyaNk,Carnival Banquet Hall,35.4201748,-97.4952905,Community Space,city hall,point_of_interest; establishment,OPERATIONAL,3.7,3,NA
ChIJ_exc5fUWsocRxgBHMIpzLek,Parks Coffee,35.4355711,-97.49056279999999,Social Business,cafe,food; point_of_interest; store; establishment,OPERATIONAL,4.8,18,NA
ChIJ_f7yOHoIsocRtislSqCX7b4,Freedom Trail Park,35.4850357,-97.75070029999999,Park,park,park; tourist_attraction; point_of_interest; establishment,OPERATIONAL,4.7,383,NA
ChIJ_f9zWx0PsocRACYkpUNWFQQ,Fresh Oil Praise Center (FOPC),35.4938992,-97.6520668,Place of Worship,place of worship,church; place_of_worship; point_of_interest; establishment,OPERATIONAL,0,0,NA
ChIJ_QIoN6UQsocR-lJ0qPhmld4,Christmas Season Worship Services,35.4949125,-97.5372079,Place of Worship,place of worship,church; place_of_worship; point_of_interest; establishment,OPERATIONAL,0,0,NA
ChIJ_QIoN6UQsocRis66KoyyxS4,Oklahoma United Methodist Ministry Center,35.494729,-97.53704239999999,Place of Worship,place of worship,church; place_of_worship; point_of_interest; establishment,OPERATIONAL,1,8,NA
ChIJ_RPdIHIXsocRuL_vUybR2Lw,Greater New Bethlehem Temple,35.4914365,-97.49094439999999,Place of Worship,place of worship,church; place_of_worship; point_of_interest; establishment,OPERATIONAL,4.4,16,NA
ChIJ_Ru5Yp4psocRHFjPpXujDB0,Church of the Living God,35.6591275,-97.19559129999999,Place of Worship,place of worship,church; place_of_worship; point_of_interest; establishment,OPERATIONAL,4.8,4,NA
ChIJ_SlgB0gasocRw4cvovwhEHI,ALL SOULS EPISCOPAL CHURCH,35.5373497,-97.54682079999999,Place of Worship,place of worship,church; place_of_worship; point_of_interest; establishment,OPERATIONAL,4.8,25,NA
ChIJ_StvrooQsocRLMmRMyFE9Tc,Reed Park,35.48205,-97.5672975,Park,park,park; point_of_interest; establishment,OPERATIONAL,4.2,184,NA
ChIJ_VWd0Eo7socRf8Ksqja5Sd0,Fred's Cafe 29,35.4348513,-97.28178129999999,Social Business,cafe,restaurant; food; point_of_interest; establishment,OPERATIONAL,5,2,NA
ChIJ_Wbn1fA9socR3sKb4ERdVRs,Del City First Church-Nazarene,35.4383006,-97.4321427,Place of Worship,place of worship,church; place_of_worship; point_of_interest; establishment,OPERATIONAL,4.8,8,NA
ChIJ_WSo2gYUsocRnu4PqIFQiZ0,South Walker Church of Christ,35.4128882,-97.5216622,Place of Worship,place of worship,church; place_of_worship; point_of_interest; establishment,OPERATIONAL,4.8,12,NA
ChIJ_Xe38L4XsocRYlqCfArOWG8,Antioch Fellowship Baptist Church,35.4850107,-97.4632278,Place of Worship,place of worship,church; place_of_worship; point_of_interest; establishment,OPERATIONAL,4.6,16,NA
ChIJ_xr8ikcXsocRA4_AOs9u_ow,Sincerely Coffee Roasters,35.4817826,-97.5213114,Social Business,cafe,cafe; food; point_of_interest; store; establishment,OPERATIONAL,4.8,51,NA
ChIJ_ymM89cdsocRxYRpXOPubak,Greens Park,35.6074601,-97.5905726,Park,park,park; point_of_interest; establishment,OPERATIONAL,4.9,9,NA
ChIJ_YmuJSsfsocR_dOqDfS5xvY,Fountain Lake,35.6123208,-97.4809101,Park,fountain,real_estate_agency; point_of_interest; establishment,OPERATIONAL,4.5,252,NA
ChIJ_zKWZv4ZsocRXP9NiqmRNFk,Disciples First (First Christian Church),35.50968599999999,-97.5170826,Place of Worship,place of worship,church; place_of_worship; point_of_interest; establishment,OPERATIONAL,3.8,20,NA
ChIJ_Zo1-koJsocR8mtyWcWbZfY,Motion Coffee,35.458308,-97.72480499999999,Social Business,cafe,cafe; food; point_of_interest; store; establishment,OPERATIONAL,2.9,15,NA
ChIJ_zVaKPsTsocRUsliQm7g66k,Emmy Coffee Shop,35.3895018,-97.54880399999999,Social Business,cafe,cafe; food; point_of_interest; establishment,CLOSED_TEMPORARILY,0,0,TRUE
ChIJ-_9HgyobsocR8tRoAk77MsE,Mardel Christian & Education,35.5443984,-97.60942179999999,Social Business,bookstore,book_store; point_of_interest; store; establishment,OPERATIONAL,4.7,883,NA
ChIJ-0qdhKYasocR2416Ksk01cc,Priesthood Meeting Place New Hope Worship Center,35.5066149,-97.59731699999999,Place of Worship,place of worship,church; place_of_worship; point_of_interest; establishment,OPERATIONAL,5,4,NA
ChIJ-1fOrgoTsocR8tlRwpi43oA,Kim Sin Books,35.3816526,-97.53415919999999,Social Business,bookstore,book_store; point_of_interest; store; establishment,OPERATIONAL,0,0,NA
ChIJ-2PLIEMFsocROUhz548ZnEQ,Serve Coffee & Community,35.5114244,-97.6302576,Social Business,cafe,cafe; food; point_of_interest; store; establishment,OPERATIONAL,4.6,124,NA
ChIJ-3j9ueMHsocRf78cgbnsF6U,Frontline Church Yukon,35.5069611,-97.7442166,Place of Worship,place of worship,church; place_of_worship; point_of_interest; establishment,OPERATIONAL,2.7,35,NA
ChIJ-4eeoFcasocRhJFHvU42CJ8,Half Price Books,35.5378193,-97.56501039999999,Social Business,bookstore,book_store; electronics_store; home_goods_store; point_of_interest; store; establishment,OPERATIONAL,4.5,1669,NA
ChIJ-4i1GRsasocRNr0th-2emGQ,Gospel Celebration Fellowship,35.5179287,-97.5322212,Place of Worship,place of worship,church; place_of_worship; point_of_interest; establishment,OPERATIONAL,4.8,4,NA
ChIJ-4ipEVk9socR2Vkdy58cZlM,Patriot Park,35.4506841,-97.4356699,Park,park,park; point_of_interest; establishment,OPERATIONAL,4.4,5,NA
ChIJ-5_nAu8csocRCKoWBGxTbQc,Crossings Community Church,35.6195696,-97.58228659999999,Community Space,community center,church; place_of_worship; point_of_interest; establishment,OPERATIONAL,4.8,289,NA
ChIJ-5_nAu8csocRCKoWBGxTbQc,Crossings Community Church,35.6195696,-97.58228659999999,Place of Worship,place of worship,church; place_of_worship; point_of_interest; establishment,OPERATIONAL,4.8,289,NA
ChIJ-5ugg4gTsocRrcRpkjpGh5k,Lightning Creek Park,35.3851434,-97.5286623,Park,park,park; tourist_attraction; point_of_interest; establishment,OPERATIONAL,3.8,100,NA
ChIJ-5xibkgDsocRyr1tJlgSyYw,McDonald's,35.607345,-97.621422,Social Business,cafe,cafe; restaurant; food; point_of_interest; store; establishment,OPERATIONAL,3.6,944,NA
ChIJ-6-rHjccsocRPzSV-eLPaFM,New Song Church,35.6198356,-97.4907344,Place of Worship,place of worship,church; place_of_worship; point_of_interest; establishment,OPERATIONAL,5,30,NA
ChIJ-6PQoj4WsocRp6PbAzg23bY,Del Baptist Temple,35.4493358,-97.4550811,Place of Worship,place of worship,church; place_of_worship; point_of_interest; establishment,OPERATIONAL,4.5,4,NA
ChIJ-9C2nBMcsocRN1FWNQuKvJc,Jesus Is Lord,35.6077258,-97.54345350000001,Place of Worship,place of worship,church; place_of_worship; point_of_interest; establishment,OPERATIONAL,0,0,NA
ChIJ-9ns9AIXsocRtrvTPHbVtxk,Winans Park,35.4908137,-97.51321,Park,park,park; point_of_interest; establishment,OPERATIONAL,0,0,NA
ChIJ-arR20QRsocRp5vG4jgnJfs,Faith Center Fellowship,35.4299616,-97.5386298,Place of Worship,place of worship,church; place_of_worship; point_of_interest; establishment,OPERATIONAL,4.7,12,NA
ChIJ-aXyKyAUsocR5nV7afVyHEw,Southside Assembly of God Church,35.4181276,-97.502627,Place of Worship,place of worship,church; place_of_worship; point_of_interest; establishment,OPERATIONAL,4.6,14,NA
ChIJ-ceJLKMFsocRwpL2n8zAIfM,Walmart Patio & Garden Services,35.56241,-97.653994,Park,garden,general_contractor; point_of_interest; establishment,OPERATIONAL,0,0,NA
ChIJ-dJUmdwesocRUY_-IDVwrPE,Landmark Books Inc,35.6119251,-97.4905003,Social Business,bookstore,book_store; point_of_interest; store; establishment,OPERATIONAL,4.5,2,NA
ChIJ-erjJ58XsocR56Pl38rTzo8,Church of the Redeemer,35.4900221,-97.4763114,Place of Worship,place of worship,church; place_of_worship; point_of_interest; establishment,OPERATIONAL,5,6,NA
ChIJ-QrHyCsXsocR_ASGrxarRq8,Carpenter Square Theatre,35.467512,-97.52616069999999,Park,square,point_of_interest; establishment,OPERATIONAL,4.7,67,NA
ChIJ-R8jKnUdsocRg3q6BTqg79w,The Grove South Club House,35.6555202,-97.5707559,Community Space,community center,point_of_interest; establishment,OPERATIONAL,4.5,49,NA
ChIJ-RQ2vXEdsocRPJWSdK0Wxh4,Starbucks,35.608143,-97.56788,Social Business,cafe,cafe; restaurant; food; point_of_interest; store; establishment,OPERATIONAL,3.7,50,NA
ChIJ-T4gsN8TsocRxJOeb0GtYdY,Southside Lawn & Garden Inc.,35.4153328,-97.5484146,Park,garden,car_dealer; point_of_interest; store; establishment,OPERATIONAL,4.3,50,NA
ChIJ-Tex0igXsocRe4ISu3lKV-0,Buzz Coffee & Cafe,35.4680946,-97.5138951,Social Business,cafe,cafe; restaurant; food; point_of_interest; store; establishment,OPERATIONAL,4.7,58,NA
ChIJ-UIpcd4asocRSDSkjRr4s6M,Garden Gate Patio Homes,35.5403192,-97.59063549999999,Park,garden,real_estate_agency; point_of_interest; establishment,OPERATIONAL,3.3,17,NA
ChIJ-WgHt6cDsocRkxQ3muENIOw,Heritage Baptist Church,35.6158689,-97.65756119999999,Place of Worship,place of worship,church; place_of_worship; point_of_interest; establishment,OPERATIONAL,4.5,33,NA
ChIJ-x-0wjkVsocRM2weJpS9PV8,VIATUS MINISTRIES,35.3703797,-97.50652889999999,Place of Worship,place of worship,church; place_of_worship; point_of_interest; establishment,OPERATIONAL,0,0,NA
ChIJ-yTuzycRsocRzM7ZC8xyQrQ,Florence Park,35.4849961,-97.5266099,Park,park,park; point_of_interest; establishment,OPERATIONAL,4.5,2,NA
ChIJ0_yhKdwHsocRfVDeJJqgy4M,Walmart Supercenter,35.4903793,-97.76353449999999,Social Business,bookstore,department_store; hardware_store; bakery; grocery_or_supermarket; electronics_store; furniture_store; home_goods_store; food; point_of_interest; clothing_store; store; establishment,OPERATIONAL,3.7,3626,NA
ChIJ0-aA6HkcsocRXuCE549dHgU,North Side Christian Church,35.5941128,-97.5593395,Place of Worship,place of worship,church; place_of_worship; point_of_interest; establishment,OPERATIONAL,5,5,NA
ChIJ00pG5IEXsocRPZSpYqY21cE,Revival Temple PCJC,35.504277,-97.48095699999999,Place of Worship,place of worship,church; place_of_worship; point_of_interest; establishment,OPERATIONAL,4.9,8,NA
ChIJ01U7cYo9socRnppZcokI9XI,Del City Civil Defense,35.45047,-97.43667889999999,Community Space,city hall,local_government_office; point_of_interest; establishment,OPERATIONAL,0,0,NA
ChIJ02Pio5oZsocRBGWYaE0FKBE,Trochta's Flowers and Garden Center,35.5397151,-97.5133881,Park,garden,florist; home_goods_store; general_contractor; point_of_interest; clothing_store; store; establishment,OPERATIONAL,4.8,148,NA
ChIJ03mnb44RsocRhKHIraAq-aA,Portland Avenue Baptist Church,35.4828657,-97.58435089999999,Place of Worship,place of worship,church; place_of_worship; point_of_interest; establishment,OPERATIONAL,4.5,34,NA
ChIJ04YlqQoIsocRm1OFftEW9Qo,Walmart Garden Center,35.4910068,-97.76350959999999,Park,garden,furniture_store; home_goods_store; general_contractor; point_of_interest; store; establishment,OPERATIONAL,0,0,NA
ChIJ05Tq-HIIsocRAZTPob-wAYk,Johnny Carino's Curbside,35.4823684,-97.76092,Social Business,cafe,restaurant; food; point_of_interest; establishment,OPERATIONAL,0,0,NA
ChIJ06_ZBBkNsocRnIJI9pYs6f4,South Lakes Church,35.3490032,-97.64730109999999,Place of Worship,place of worship,church; place_of_worship; point_of_interest; establishment,OPERATIONAL,4.9,11,NA
ChIJ0617CykXsocRCi2brJqIA9U,Wave Fountain,35.4669418,-97.5177018,Park,fountain,point_of_interest; establishment,OPERATIONAL,4,1,NA
ChIJ06ejGfATsocRZdMfEJsP-6k,Refresqueria Las Delicias,35.4065234,-97.5351747,Social Business,cafe,restaurant; food; point_of_interest; store; establishment,OPERATIONAL,4.1,524,NA
ChIJ08sPUREXsocRdDHlgFSxUiU,Robert M Bird Health Sci Library,35.4795825,-97.49409229999999,Community Space,library,library; point_of_interest; establishment,OPERATIONAL,4.8,24,NA
ChIJ090cL1I9socR-p2kS-VfDnw,Riverside Gardens Cemetery,35.5068643,-97.4296854,Park,garden,cemetery; point_of_interest; establishment,OPERATIONAL,3.8,4,NA
ChIJ09IKIRYLsocRXfA6s_6yNbQ,Success library,35.384226,-97.7244867,Community Space,library,library; point_of_interest; establishment,OPERATIONAL,0,0,NA
ChIJ0aw8Q9sRsocROuDdT1GUO1M,COWBOYS OKC,35.442028,-97.6016082,Community Space,city hall,bar; point_of_interest; establishment,OPERATIONAL,4.2,961,NA
ChIJ0cbMRfkTsocRXhziDq2HlO8,Therapitas - Walker Square,35.406615,-97.51834799999999,Park,square,health; point_of_interest; establishment,OPERATIONAL,4.3,10,NA
ChIJ0d7dv-QhsocREJpD9nTRvqw,Carl Reherman Park,35.6237164,-97.4006124,Park,park,park; point_of_interest; establishment,OPERATIONAL,3.8,5,NA
ChIJ0ecSkCIfsocR3AtNA3usE9M,Cafe 47 Indian Eatery,35.6240663,-97.50456400000002,Social Business,cafe,cafe; restaurant; food; point_of_interest; store; establishment,OPERATIONAL,4.3,139,NA
ChIJ0eNpEL8dsocRpzX-wm1UZUw,Life.Church Oklahoma City,35.654468,-97.54786,Place of Worship,place of worship,church; place_of_worship; point_of_interest; establishment,OPERATIONAL,4.9,436,NA
ChIJ0QzuJXgFsocRml_R5m7PrnY,Jack Cornet Park,35.5002172,-97.61487819999999,Park,park,park; point_of_interest; establishment,OPERATIONAL,4.1,21,NA
ChIJ0UhpW2gZsocRMLruiEXMZGE,Patricia Hall,35.5700213,-97.5121434,Community Space,city hall,doctor; health; point_of_interest; establishment,OPERATIONAL,0,0,NA
ChIJ0UyK1X0asocRIEaP1xVfVGI,Baptist Village Communities - Home Office,35.5094695,-97.5648159,Community Space,community center,point_of_interest; establishment,OPERATIONAL,5,3,NA
ChIJ0VIiEKUZsocRRq7r40CdjEk,Plainview Baptist Church,35.5427319,-97.49461029999999,Place of Worship,place of worship,church; place_of_worship; point_of_interest; establishment,OPERATIONAL,4.1,15,NA
ChIJ0y1XFWUZsocR5v_3z-Q1b_s,Sherwood Gardens Landscape Design & Development,35.55015,-97.4457,Park,garden,general_contractor; point_of_interest; establishment,OPERATIONAL,4.8,4,NA
ChIJ0yKFADQjsocRHa2cAXuK1_M,True Love First Baptist Church,35.5203457,-97.3788589,Place of Worship,place of worship,church; place_of_worship; point_of_interest; establishment,OPERATIONAL,5,1,NA
ChIJ0ykwVgE_socR20fCpfO07UA,Cheyenne Park,35.4228109,-97.4332488,Park,park,park; point_of_interest; establishment,OPERATIONAL,3,4,NA
ChIJ0YWqkTc-socRRGYpOCl1H_s,Bills Bar and Billiards,35.3922767,-97.4181747,Community Space,city hall,bar; point_of_interest; establishment,OPERATIONAL,4.7,378,NA
ChIJ0Z3FkFMTsocRM0IYglh_YIU,McDonald's,35.3347472,-97.53107039999999,Social Business,cafe,cafe; restaurant; food; point_of_interest; store; establishment,OPERATIONAL,3.4,871,NA
ChIJ0Z5kcBQfsocR4JroeePfXJs,First Baptist Church of Edmond,35.622873,-97.46174099999999,Place of Worship,place of worship,church; place_of_worship; point_of_interest; establishment,OPERATIONAL,4.2,43,NA
ChIJ0Z6K27wasocRxu554bJSqZE,M Fountain Enterprises Inc,35.51370300000001,-97.592877,Park,fountain,health; point_of_interest; establishment,OPERATIONAL,0,0,NA
ChIJ0zG27q0QsocRIiFLC27I0T0,INP Offices,35.4958446,-97.528697,Place of Worship,place of worship,church; place_of_worship; point_of_interest; establishment,OPERATIONAL,4,3,NA
ChIJ0zjgiNERsocREXy-aNWNq5o,Red Andrews Park,35.475913,-97.5251248,Park,park,park; point_of_interest; establishment,OPERATIONAL,2,3,NA
ChIJ0zXCcCURsocRgWArGbs91T8,Evolve Church OKC,35.5026272,-97.56525239999999,Place of Worship,place of worship,church; place_of_worship; point_of_interest; establishment,OPERATIONAL,0,0,NA
ChIJ0zy0o8wHsocR9fEZHURSKnw,Braum's Ice Cream & Dairy Store,35.5084012,-97.7431034,Social Business,cafe,grocery_or_supermarket; restaurant; food; point_of_interest; store; establishment,OPERATIONAL,4.1,915,NA
ChIJ1-_bqWcRsocRMJJtFBpfuJU,Church of God in Christ,35.4264144,-97.5493087,Place of Worship,place of worship,church; place_of_worship; point_of_interest; establishment,OPERATIONAL,0,0,NA
ChIJ1-Z8obIQsocRXcwXI62LexI,Christian Life Missionary Church,35.4947816,-97.5258726,Place of Worship,place of worship,church; place_of_worship; point_of_interest; establishment,OPERATIONAL,4,3,NA
ChIJ1-zIcZ8bsocRqO-lpTJTJyo,Urban Station Coffee Café,35.53699599999999,-97.58286539999999,Social Business,cafe,cafe; food; point_of_interest; store; establishment,OPERATIONAL,4.9,59,NA
ChIJ12_oDJITsocRuK_iDXnKvHo,Triumphant Church,35.3930168,-97.5360412,Place of Worship,place of worship,church; place_of_worship; point_of_interest; establishment,OPERATIONAL,5,2,NA
ChIJ13-Cfy834BQR09UgzucJvaE,Vishwas Church Inc.,35.4594088,-97.7490906,Place of Worship,place of worship,church; place_of_worship; point_of_interest; establishment,OPERATIONAL,0,0,NA
ChIJ15lD_0QfsocRsq_z2zKLt1g,Christ Community Church,35.6239955,-97.4669265,Place of Worship,place of worship,church; place_of_worship; point_of_interest; establishment,OPERATIONAL,5,3,NA
ChIJ15Q5gpwpsocRvrutdfpjrJs,First Baptist Church,35.6620445,-97.1916103,Place of Worship,place of worship,church; place_of_worship; point_of_interest; establishment,OPERATIONAL,4.9,9,NA
ChIJ15zNcCAbsocRJcXATelEo94,PapaJohn’s,35.5783292,-97.5677631,Social Business,cafe,restaurant; food; point_of_interest; establishment,OPERATIONAL,0,0,NA
ChIJ17fsajQXsocRCKfNs4YW5AE,Café Cuvée,35.4801452,-97.52092499999999,Social Business,cafe,cafe; restaurant; food; point_of_interest; establishment,OPERATIONAL,4.5,322,NA
ChIJ19_sGhUasocRctano9zz3EY,Starbucks,35.5248386,-97.5440927,Social Business,cafe,cafe; restaurant; food; point_of_interest; store; establishment,OPERATIONAL,3.9,274,NA
ChIJ1aiIeY0PsocRy8esoRk5sdE,Bethany Square Apartments,35.4886347,-97.6362635,Park,square,point_of_interest; establishment,OPERATIONAL,3.1,18,NA
ChIJ1bezfMgXsocRbLLHaD38eJM,Souls for Christ Ministry,35.477,-97.4571299,Place of Worship,place of worship,church; place_of_worship; point_of_interest; establishment,OPERATIONAL,5,6,NA
ChIJ1daAq_ITsocRBh1Ks3uC_Z8,Taylor park,35.3953356,-97.5352952,Park,park,park; point_of_interest; establishment,OPERATIONAL,4.2,48,NA
ChIJ1de3Rd4TsocRhxJXDWe4fN0,Bee Healthy Cafe (South Western Ave.),35.3465666,-97.53126040000001,Social Business,cafe,restaurant; food; point_of_interest; establishment,OPERATIONAL,4.7,102,NA
ChIJ1QcDjhcFsocRD895R0jzuV4,Tulakes Community Church,35.5138361,-97.63422659999999,Place of Worship,place of worship,church; place_of_worship; point_of_interest; establishment,OPERATIONAL,4.9,18,NA
ChIJ1TxhWBIUsocRte5PguaYhPA,Wilmont Place Baptist Church,35.4010819,-97.5121217,Place of Worship,place of worship,church; place_of_worship; point_of_interest; establishment,OPERATIONAL,4.1,32,NA
ChIJ1WowRK8QsocRdHs_CI_NBdM,Cellar Cafe & Bar,35.4991121,-97.53485049999999,Social Business,cafe,bar; point_of_interest; establishment,OPERATIONAL,5,8,NA
ChIJ1xFHQJoXsocRyHx8RCZHdTg,Highland Drive Church of God,35.4942872,-97.4721213,Place of Worship,place of worship,church; place_of_worship; point_of_interest; establishment,OPERATIONAL,5,2,NA
ChIJ1xoqZeoZsocRlQhugIr_4C4,The Last Drop,35.5258827,-97.5038223,Social Business,cafe,cafe; food; point_of_interest; store; establishment,OPERATIONAL,4.8,100,NA
ChIJ1xRN4kcFsocRG5O7_0psRgA,Warr Acres City Hall,35.5154466,-97.6105537,Community Space,city hall,local_government_office; point_of_interest; establishment,OPERATIONAL,3.4,5,NA
ChIJ1xRN4kcFsocRKdym60fQCdU,Warr Acres Municipal Court,35.5154466,-97.6105537,Community Space,city hall,courthouse; local_government_office; point_of_interest; establishment,OPERATIONAL,3,2,NA
ChIJ1YeiZYMasocRJ_Mn0z5hXGo,Will Rogers Gardens,35.5069202,-97.57722389999999,Park,garden,tourist_attraction; local_government_office; park; point_of_interest; store; establishment,OPERATIONAL,4.6,2912,NA
ChIJ1YeiZYMasocRJ_Mn0z5hXGo,Will Rogers Gardens,35.5069202,-97.57722389999999,Community Space,city hall,tourist_attraction; local_government_office; park; point_of_interest; store; establishment,OPERATIONAL,4.6,2912,NA
ChIJ1yjxbd8XsocRx8KyRIfpRXQ,Christ Holy Sanctified Church,35.4872659,-97.4400874,Place of Worship,place of worship,church; place_of_worship; point_of_interest; establishment,OPERATIONAL,0,0,NA
ChIJ1yNQ0ScXsocRfdJglg0iiao,City of Oklahoma City,35.46799500000001,-97.52144659999999,Community Space,city hall,local_government_office; point_of_interest; establishment,OPERATIONAL,0,0,NA
ChIJ1yU2T6EPsocRoEbv8nCig4Q,Melrose Recreation Center,35.470854,-97.65098139999999,Community Space,community center,point_of_interest; establishment,OPERATIONAL,4.2,18,NA
ChIJ1z6HypwbsocRUgS-5svGFSE,Duffner Park,35.5796328,-97.56402089999999,Park,park,park; tourist_attraction; point_of_interest; establishment,OPERATIONAL,4.6,361,NA
ChIJ1ZyPtmsUsocReNRsBznHAYc,Lighthouse Foursquare Church,35.3944056,-97.50684749999999,Place of Worship,place of worship,church; place_of_worship; point_of_interest; establishment,OPERATIONAL,5,5,NA
ChIJ2-K1SXE5socREZpz5WqjguQ,Heartland Conference IPHC & Retreat Center,35.41667990000001,-97.313671,Place of Worship,place of worship,church; place_of_worship; point_of_interest; establishment,OPERATIONAL,4.9,15,NA
ChIJ2-vaG4wWsocRIzxpXng9O2A,Luigi's Bistro in Newcastle,35.2920227,-97.6012878,Social Business,cafe,restaurant; food; point_of_interest; establishment,OPERATIONAL,4.3,601,NA
ChIJ2-ZEARk8socRhCAdVaX4wYY,Whataburger,35.4364238,-97.3703291,Social Business,cafe,restaurant; meal_takeaway; food; point_of_interest; establishment,OPERATIONAL,3.9,2869,NA
ChIJ20uyfCscsocR4L564gDA8Bk,Winners Church,35.5451983,-97.6103115,Place of Worship,place of worship,church; place_of_worship; point_of_interest; establishment,OPERATIONAL,5,9,NA
ChIJ21Yo46oXsocRhx0wVLyimRk,Iglesia evangélica Cristiana espiritual,35.43916189999999,-97.47695010000001,Place of Worship,place of worship,church; place_of_worship; point_of_interest; establishment,OPERATIONAL,5,1,NA
ChIJ24J2mCkXsocRVdE9mbyrSrw,Crystal Bridge Tropical Conservatory,35.4650745,-97.51796859999999,Park,garden,tourist_attraction; park; point_of_interest; establishment,CLOSED_TEMPORARILY,4.7,283,TRUE
ChIJ24TE8QsFsocRPg-xXLymK7M,Church,35.4998222,-97.6531208,Place of Worship,place of worship,church; place_of_worship; point_of_interest; establishment,OPERATIONAL,0,0,NA
ChIJ28TH7YD_sYcRqqJsbOloouE,Piedmont Service Center,35.64275629999999,-97.7454581,Community Space,community center,point_of_interest; establishment,OPERATIONAL,4.3,6,NA
ChIJ29Srde0WsocRsv4CcYMJ6zc,House of Prayer,35.4452349,-97.493414,Place of Worship,place of worship,church; place_of_worship; point_of_interest; establishment,OPERATIONAL,5,4,NA
ChIJ2a0LeEIcsocRys0wQoehGZA,O'Connor's Lawn & Garden,35.61306769999999,-97.5537683,Park,garden,point_of_interest; store; establishment,OPERATIONAL,4.3,348,NA
ChIJ2eOJRiwFsocRHvhLqpEz7TQ,Church of the Savior,35.53631960000001,-97.61519179999999,Place of Worship,place of worship,church; place_of_worship; point_of_interest; establishment,OPERATIONAL,4.4,16,NA
ChIJ2f6WHq4psocR-LOKz6J_knM,Metropolitan AME,35.66045,-97.196169,Place of Worship,place of worship,church; place_of_worship; point_of_interest; establishment,OPERATIONAL,5,1,NA
ChIJ2fEL_QQcsocRRrLXZ1egrzU,Bethel Foundation - Food Distribution Center,35.6012957,-97.5325302,Community Space,community center,food; point_of_interest; establishment,OPERATIONAL,0,0,NA
ChIJ2QTfhXIRsocR4JI_k58Tt6E,Woodson Senior Center,35.4321058,-97.56728419999999,Community Space,community center,point_of_interest; establishment,OPERATIONAL,5,1,NA
ChIJ2RRB9sMdsocREvw18QEh9tw,Free Methodist Church-Edmond,35.652531,-97.5397962,Place of Worship,place of worship,church; place_of_worship; point_of_interest; establishment,OPERATIONAL,3.5,2,NA
ChIJ2RS5jXYUsocRfOYFj-qdySk,Jimmy's Egg,35.3890148,-97.5222379,Social Business,cafe,restaurant; food; point_of_interest; establishment,OPERATIONAL,4.1,843,NA
ChIJ2SFV0ggasocRFvlPPQ4Rd00,Sarah & Lily Warren Park,35.5105216,-97.5377506,Park,park,park; point_of_interest; establishment,OPERATIONAL,4.1,7,NA
ChIJ2VPtYCcXsocRLdt8Yk8dB0E,Starbucks,35.463938,-97.509805,Social Business,cafe,cafe; restaurant; food; point_of_interest; store; establishment,OPERATIONAL,4.3,813,NA
ChIJ2W0js-UPsocRgYBKEs1Udao,The Garden Apartments,35.4850442,-97.6192985,Park,garden,point_of_interest; establishment,OPERATIONAL,3,26,NA
ChIJ2W2XcrsZsocRqOqxsGzSzv4,Church of God in Christ,35.5381373,-97.4961805,Place of Worship,place of worship,church; place_of_worship; point_of_interest; establishment,OPERATIONAL,4.8,4,NA
ChIJ2wcUbdA9socRftfu39-uAI0,Jack in the Box,35.435683,-97.4050561,Social Business,cafe,restaurant; food; point_of_interest; establishment,OPERATIONAL,3.7,1190,NA
ChIJ2WRkss0NsocRBKDeiQx2Nbw,Wheatland Methodist Church,35.3968011,-97.65151,Place of Worship,place of worship,church; place_of_worship; point_of_interest; establishment,OPERATIONAL,3,2,NA
ChIJ2wx0S0wDsocRFq40OaW2rsk,The Fountains at Hidden Creek,35.6012267,-97.6167595,Park,fountain,point_of_interest; establishment,OPERATIONAL,4.5,4,NA
ChIJ2xB-JG0RsocR1NVUjFwsmns,Antioch Baptist Church,35.4380061,-97.5549436,Place of Worship,place of worship,church; place_of_worship; point_of_interest; establishment,OPERATIONAL,4.8,6,NA
ChIJ2xgL4ccDsocRUmh3c_B3bUI,Core Fresh,35.6079864,-97.6255569,Social Business,cafe,restaurant; food; point_of_interest; establishment,OPERATIONAL,4.3,39,NA
ChIJ2xIAGpsasocRkvs9mWP7f_Y,Broadview Heights Church,35.6361738,-97.5659429,Place of Worship,place of worship,church; place_of_worship; point_of_interest; establishment,OPERATIONAL,0,0,NA
ChIJ2XtAy9A9socRf5vJJ5mnSKc,Starbucks,35.432117,-97.40372169999999,Social Business,cafe,cafe; food; point_of_interest; store; establishment,OPERATIONAL,3.8,43,NA
ChIJ2xX2ylYfsocRgyXY47VMGLU,Tropical Smoothie Cafe,35.6680042,-97.5102168,Social Business,cafe,food; point_of_interest; establishment,OPERATIONAL,2.7,202,NA
ChIJ2XxcON8LsocR4kAaUZaStys,Boomarang Diner Mustang,35.4039879,-97.7240601,Social Business,cafe,restaurant; food; point_of_interest; establishment,OPERATIONAL,4.3,772,NA
ChIJ2xXjkp0lsocRGwKsNoChbN8,Jones Park,35.5654932,-97.2800021,Park,park,park; point_of_interest; establishment,OPERATIONAL,4.7,53,NA
ChIJ2ZAMwZ4EsocRyH1If1iK-6U,The Land Street Community Centre,35.5817968,-97.63693339999999,Community Space,community center,point_of_interest; establishment,OPERATIONAL,0,0,NA
ChIJ2ZtroJwLsocRz89CQHUyvMA,Mustang Old City Park,35.3814803,-97.7219758,Park,park,park; point_of_interest; establishment,OPERATIONAL,4.1,23,NA
ChIJ301aWBISsocRkuokB9cCIdo,Bricktown Square,35.3953162,-97.59856409999999,Park,square,point_of_interest; store; establishment,OPERATIONAL,3.3,4,NA
ChIJ31doZ-cQsocR63ron6M7lok,Elemental Coffee,35.4757823,-97.51947299999999,Social Business,cafe,cafe; restaurant; food; point_of_interest; store; establishment,OPERATIONAL,4.5,1138,NA
ChIJ31vLenQPsocRv0wuDo9iSRo,Zion Pentecostal Church,35.4789809,-97.6593546,Place of Worship,place of worship,church; place_of_worship; point_of_interest; establishment,OPERATIONAL,5,1,NA
ChIJ352vBfATsocRwiZQYuv5XxI,Square Apartments,35.4069419,-97.5351797,Park,square,point_of_interest; establishment,OPERATIONAL,0,0,NA
ChIJ35MvuTgTsocRVnu26hodLzI,Good Shepherd Christian Church,35.3456183,-97.54753769999999,Place of Worship,place of worship,church; place_of_worship; point_of_interest; establishment,OPERATIONAL,0,0,NA
ChIJ360SlUgDsocRR6k_3rkzero,Charley's,35.6047886,-97.62117230000001,Social Business,cafe,restaurant; food; point_of_interest; establishment,OPERATIONAL,0,0,NA
ChIJ37CLAXUcsocRHgT_ICveCkc,McDonald's,35.5942503,-97.5488298,Social Business,cafe,cafe; restaurant; food; point_of_interest; store; establishment,OPERATIONAL,3.4,1353,NA
ChIJ38cjRfUEsocRvCAPxOCyrAk,Walmart Garden Center,35.5622601,-97.6548163,Park,garden,furniture_store; home_goods_store; general_contractor; point_of_interest; store; establishment,OPERATIONAL,0,0,NA
ChIJ38hXvZwUsocR1Is8DHhBtm4,Shekinah Fellowship Church,35.3618782,-97.5199016,Place of Worship,place of worship,church; place_of_worship; point_of_interest; establishment,OPERATIONAL,4.6,28,NA
ChIJ38OMAWERsocRWshD_YG1L4g,Grant Square Animal Hospital,35.4204955,-97.5492282,Park,square,pet_store; veterinary_care; point_of_interest; store; establishment,OPERATIONAL,4.8,290,NA
ChIJ3anVOD4QsocRKsgcWchNkSc,West Side Lions Club,35.4791303,-97.594099,Community Space,city hall,point_of_interest; establishment,OPERATIONAL,4.2,31,NA
ChIJ3anVOD4QsocRKsgcWchNkSc,West Side Lions Club,35.4791303,-97.594099,Community Space,community center,point_of_interest; establishment,OPERATIONAL,4.2,31,NA
ChIJ3coRoxEZsocRkz4uaB4aacY,L.D. Lacy Park,35.5168064,-97.49202389999999,Park,park,park; point_of_interest; establishment,OPERATIONAL,5,5,NA
ChIJ3daB7hoUsocRSnvlBcmcf0c,Westside Church of God (Seventh Day),35.4105516,-97.5121808,Place of Worship,place of worship,church; place_of_worship; point_of_interest; establishment,OPERATIONAL,5,2,NA
ChIJ3eMu3hg8socR5t0eVVS7WqY,McDonald's,35.43479,-97.37025299999999,Social Business,cafe,cafe; restaurant; food; point_of_interest; store; establishment,OPERATIONAL,3.1,2237,NA
ChIJ3eON0bQdsocRl3NwUqoYOtM,Hummus Mediterranean Cafe North OKC,35.6073745,-97.5681882,Social Business,cafe,restaurant; food; point_of_interest; establishment,OPERATIONAL,4.5,297,NA
ChIJ3fgGJlUasocRZbAv1KEzFTI,Belle’s Kitchen,35.54661979999999,-97.56608759999999,Social Business,cafe,bakery; cafe; restaurant; food; point_of_interest; store; establishment,OPERATIONAL,4.3,252,NA
ChIJ3fNj-IsasocRk2HMCvtoafQ,Mayfair Center,35.5198249,-97.5738525,Community Space,community center,point_of_interest; establishment,OPERATIONAL,4,9,NA
ChIJ3fNj-IsasocRk2HMCvtoafQ,Mayfair Center,35.5198249,-97.5738525,Community Space,city hall,point_of_interest; establishment,OPERATIONAL,4,9,NA
ChIJ3foNBpYTsocRClgGo8eV2Kg,Starbucks,35.390796,-97.545565,Social Business,cafe,cafe; restaurant; food; point_of_interest; store; establishment,OPERATIONAL,4.1,1121,NA
ChIJ3QNgYfw8socR3CK8IJRfGXQ,Pennington Creek Life House,35.479091,-97.3904752,Place of Worship,place of worship,church; place_of_worship; point_of_interest; establishment,OPERATIONAL,0,0,NA
ChIJ3StSE1ZtsocR0HQ2a3ZvoEE,Hi-Res Nutrition,35.2913534,-97.6069953,Social Business,cafe,restaurant; food; point_of_interest; establishment,OPERATIONAL,5,7,NA
ChIJ3TRWXgoRsocRPJXYFBLofv0,Square Deal Auto Salvage,35.4404754,-97.5657348,Park,square,car_repair; point_of_interest; store; establishment,OPERATIONAL,3.2,73,NA
ChIJ3TuoaxAXsocRRzu2bUOXjSA,APOSTOLIC CHURCH CASA DE DIOS,35.4275096,-97.49271279999999,Place of Worship,place of worship,church; place_of_worship; point_of_interest; establishment,OPERATIONAL,0,0,NA
ChIJ3TZTBmgasocRmQ1z0UVxoAk,Wendoma LLC,35.5256793,-97.55798500000002,Social Business,cafe,restaurant; food; point_of_interest; establishment,OPERATIONAL,0,0,NA
ChIJ3V4sYMsEsocRhM5Lk1CTGDY,Lakeshore Park Baseball fields,35.5604217,-97.61293529999999,Park,park,park; point_of_interest; establishment,OPERATIONAL,4.3,164,NA
ChIJ3V6XbUYRsocRJ2Yt9uoErAY,Starbucks,35.435375,-97.5689436,Social Business,cafe,cafe; food; point_of_interest; store; establishment,OPERATIONAL,3.8,48,NA
ChIJ3VHUHUgZsocRABLVzJFQFPg,Not Your Average Joe,35.5079023,-97.50203379999999,Social Business,cafe,cafe; food; point_of_interest; store; establishment,OPERATIONAL,0,0,NA
ChIJ3wDL2sALsocRa9ayG6qItPk,Mustang Church of Christ,35.4208241,-97.7386638,Place of Worship,place of worship,church; place_of_worship; point_of_interest; establishment,OPERATIONAL,4.8,6,NA
ChIJ3WjyheIXsocRALhr8qM7DVk,Tienda angelica,35.4274486,-97.4564379,Social Business,cafe,point_of_interest; establishment,CLOSED_TEMPORARILY,0,0,TRUE
ChIJ3WRzzBEXsocR7VMD9LqWd7w,Beaker's Cafe and Food Court,35.4793438,-97.4926186,Social Business,cafe,food; point_of_interest; establishment,OPERATIONAL,3.9,32,NA
ChIJ3Y2zM8ERsocRM-72iZg4zEc,Tulsa Park,35.44164,-97.5933331,Park,park,park; point_of_interest; establishment,OPERATIONAL,3.8,133,NA
ChIJ3YyW7NwbsocRrvuzm78X5-8,OKE City Community Church,35.56682929999999,-97.5338046,Place of Worship,place of worship,church; place_of_worship; point_of_interest; establishment,OPERATIONAL,4.8,4,NA
ChIJ4_aFJF0FsocRPNp-Zb6diHw,Northwest Oklahoma Nazarene,35.5096407,-97.63119479999999,Place of Worship,place of worship,church; place_of_worship; point_of_interest; establishment,OPERATIONAL,4,1,NA
ChIJ4-FiMME9socR0B2a1AkCYw4,Rose State College Learning Resources Center,35.4445285,-97.4115776,Community Space,library,library; point_of_interest; establishment,OPERATIONAL,4.5,12,NA
ChIJ41YEBuA9socRsaQ50OQNqGw,Tinker AFB Library,35.4261627,-97.4169998,Community Space,library,library; point_of_interest; establishment,OPERATIONAL,4.5,15,NA
ChIJ42OWdy4FsocRdZ6T8VLyprc,Walmart Patio & Garden Services,35.538043,-97.62106999999999,Park,garden,general_contractor; point_of_interest; establishment,OPERATIONAL,0,0,NA
ChIJ43EWT5IVsocRyKi2YIFHrtw,According To Divine Providence,35.3987825,-97.45162289999999,Place of Worship,place of worship,church; place_of_worship; point_of_interest; establishment,OPERATIONAL,0,0,NA
ChIJ44mf32kYsocR38LLSG17tfY,Textbook Exchange,35.5389775,-97.45953159999999,Social Business,bookstore,book_store; point_of_interest; store; establishment,OPERATIONAL,4.6,8,NA
ChIJ46fkMn89socRnBR6ekUHKS4,MWC Welcome Center Dog Park,35.4348408,-97.39967759999999,Park,park,park; point_of_interest; establishment,OPERATIONAL,5,1,NA
ChIJ47xnKJ0PsocRynZrqSzKhLo,The Fellowship at Western Oaks,35.48655,-97.652233,Place of Worship,place of worship,church; place_of_worship; point_of_interest; establishment,OPERATIONAL,4.7,32,NA
ChIJ49Npk3QEsocR9ogBkF-o1QY,Community Church,35.5793902,-97.6747659,Place of Worship,place of worship,church; place_of_worship; point_of_interest; establishment,OPERATIONAL,0,0,NA
ChIJ4aZqNkYfsocRAbcJIzCEK28,Oklahoma Church Project,35.6095227,-97.4566455,Place of Worship,place of worship,church; place_of_worship; point_of_interest; establishment,OPERATIONAL,0,0,NA
ChIJ4cWMxd0asocR6epjb45uw2E,Community Pathways Unlimited,35.5389861,-97.59181219999999,Community Space,community center,health; point_of_interest; establishment,OPERATIONAL,5,1,NA
ChIJ4dCV-0IFsocRm99lQm78oNk,Herrick Building and Auditorium - SNU,35.5123354,-97.6304674,Community Space,city hall,point_of_interest; establishment,OPERATIONAL,5,5,NA
ChIJ4eEsvlQRsocRqaNY8rtwGuA,La iglesia,35.47802490000001,-97.5391945,Place of Worship,place of worship,place_of_worship; point_of_interest; establishment,OPERATIONAL,0,0,NA
ChIJ4RQdE_YasocRpD9aPKXuZ2Y,Garden Center at The Home Depot,35.5314063,-97.569625,Park,garden,furniture_store; home_goods_store; general_contractor; point_of_interest; store; establishment,OPERATIONAL,0,0,NA
ChIJ4RS95WUEsocRgcT5JCiXhJo,People's Church Northwest Campus,35.5683334,-97.66468019999999,Place of Worship,place of worship,church; place_of_worship; point_of_interest; establishment,OPERATIONAL,4.8,45,NA
ChIJ4Tgt0S4XsocRHMqrtom7uuk,Ground Floor Cafe & Bakery,35.4694793,-97.5169122,Social Business,cafe,cafe; food; point_of_interest; establishment,OPERATIONAL,4.7,19,NA
ChIJ4UcfH8gcsocRnJ30oOdKAcE,Panera Bread,35.6108246,-97.597816,Social Business,cafe,cafe; bakery; meal_takeaway; restaurant; food; point_of_interest; store; establishment,OPERATIONAL,4.1,811,NA
ChIJ4Uk0UdMbsocRA6FWokSiNKA,The Wood Garden,35.5498745,-97.5305491,Park,garden,furniture_store; home_goods_store; point_of_interest; store; establishment,OPERATIONAL,5,2,NA
ChIJ4UQIY3ccsocRYr0fxFlnkE4,Dorset Place,35.5951215,-97.5578803,Community Space,community center,health; point_of_interest; establishment,OPERATIONAL,4.4,9,NA
ChIJ4V4f1MULsocRpTDDhw2L4nw,Walmart Patio & Garden Services,35.393703,-97.705208,Park,garden,general_contractor; point_of_interest; establishment,OPERATIONAL,0,0,NA
ChIJ4VDBAVoQsocRdJ6S1hy10qI,State Fair Park,35.4705759,-97.5735435,Park,park,park; point_of_interest; establishment,OPERATIONAL,4.3,196,NA
ChIJ4VSN9QMXsocRdzxQoK1W1L4,Friends of Metro Library,35.522011,-97.5055766,Community Space,library,point_of_interest; establishment,OPERATIONAL,5,9,NA
ChIJ4VZczsgWsocRdcueVk8qdH4,Mat Hoffman Skatepark,35.4469907,-97.5153093,Park,park,park; point_of_interest; establishment,OPERATIONAL,4.6,155,NA
ChIJ4WQvvjAXsocRbzNvBVOmvVk,CityChurch,35.5527418,-97.6244171,Place of Worship,place of worship,church; place_of_worship; point_of_interest; establishment,OPERATIONAL,3.1,7,NA
ChIJ4WTJjsMLsocRxKXn9TCiTzw,Mustang United Methodist Church,35.3924307,-97.7273701,Place of Worship,place of worship,church; place_of_worship; point_of_interest; establishment,OPERATIONAL,4.9,30,NA
ChIJ4xd9ILcWsocRAH3tEXsGliE,Lighthouse Ministries,35.4371435,-97.51643209999999,Place of Worship,place of worship,church; place_of_worship; point_of_interest; establishment,OPERATIONAL,3.7,3,NA
ChIJ4xdLpl8IsocR4NuwENU6Fhw,International Pentecostal Assembly,35.467877,-97.74360899999999,Place of Worship,place of worship,church; place_of_worship; point_of_interest; establishment,OPERATIONAL,4.7,17,NA
ChIJ4XrGB-8asocRdyDUYw4Gsbg,Messiah Lutheran Church,35.5319746,-97.5828519,Place of Worship,place of worship,church; place_of_worship; point_of_interest; establishment,OPERATIONAL,4.5,25,NA
ChIJ4XzNFfYPsocRsB9wO3Xu3Sc,SWITCH FOOD HALL,35.4669979,-97.6480296,Community Space,city hall,restaurant; food; point_of_interest; establishment,OPERATIONAL,5,2,NA
ChIJ4XzNFfYPsocRsB9wO3Xu3Sc,SWITCH FOOD HALL,35.4669979,-97.6480296,Social Business,cafe,restaurant; food; point_of_interest; establishment,OPERATIONAL,5,2,NA
ChIJ4YfpvXgXsocR6Bm_U5HMgWE,Church of God in Christ,35.50198,-97.4823679,Place of Worship,place of worship,church; place_of_worship; point_of_interest; establishment,OPERATIONAL,4.6,5,NA
ChIJ4YUaBbAfsocRd1ThZSxYL98,Rolling Park,35.6457195,-97.5224508,Park,park,park; point_of_interest; establishment,OPERATIONAL,4.8,4,NA
ChIJ4YYU4wg_socRuNOoymg2Qe4,Observation Park,35.384146,-97.3878765,Park,park,park; point_of_interest; establishment,OPERATIONAL,4.7,11,NA
ChIJ4ZQqSlsFsocRvvlp7Fscp4E,Divine Life Church,35.5102245,-97.62649719999999,Place of Worship,place of worship,church; place_of_worship; point_of_interest; establishment,OPERATIONAL,4.5,4,NA
ChIJ5_h_jfsPsocR7fKtnZuKi3M,Lazarus Community at Clark Memorial United Methodist Church,35.4926237,-97.6175641,Place of Worship,place of worship,church; place_of_worship; point_of_interest; establishment,OPERATIONAL,4.7,3,NA
ChIJ51bRvMEJsocRjsuBwr9Zrn4,Pathway Church,35.4796894,-97.75501589999999,Place of Worship,place of worship,church; place_of_worship; point_of_interest; establishment,OPERATIONAL,4.3,3,NA
ChIJ51Gl1mkdsocRy3X-NK2rCOs,Valencia Park,35.6574041,-97.5544826,Park,park,point_of_interest; establishment,OPERATIONAL,4.8,6,NA
ChIJ51HKLYg9socRXHDBXDBS-r4,Wiggly Field,35.4545963,-97.4372758,Park,park,park; point_of_interest; establishment,CLOSED_TEMPORARILY,3.9,207,TRUE
ChIJ52lcCVQTsocRG7wA7jkXzhU,The Crown Center,35.3362993,-97.5296248,Place of Worship,place of worship,church; place_of_worship; point_of_interest; establishment,OPERATIONAL,5,6,NA
ChIJ54GSiv0asocRUkjOoM0C5Z8,PAW OK Dog Park (membership),35.5462455,-97.5748682,Park,park,park; point_of_interest; establishment,OPERATIONAL,3.7,586,NA
ChIJ54uciIgFsocRYO93s8vVmnk,Lake Overholser Boathouse & Cafe,35.5021114,-97.6658162,Community Space,community center,point_of_interest; establishment,OPERATIONAL,4.4,363,NA
ChIJ54VTEDAKsocRGZS7AX4i4AE,Mustang Christian Church,35.3927981,-97.75172459999999,Place of Worship,place of worship,church; place_of_worship; point_of_interest; establishment,OPERATIONAL,4.8,8,NA
ChIJ57AjihYUsocRpUaYPm3C5Yg,Community Christian Church,35.4047738,-97.5059217,Place of Worship,place of worship,church; place_of_worship; point_of_interest; establishment,OPERATIONAL,0,0,NA
ChIJ57ms2k0XsocRSTfsJWadnOc,OKC Community Church,35.49341,-97.51997829999999,Place of Worship,place of worship,church; place_of_worship; point_of_interest; establishment,OPERATIONAL,4.5,21,NA
ChIJ584_Yc8ZsocRL_c9pNCvlaw,Temple of Healing,35.5228368,-97.4919834,Place of Worship,place of worship,church; place_of_worship; point_of_interest; establishment,OPERATIONAL,2,1,NA
ChIJ5bEYugccsocRIrFARGFAuRc,The Fountains at Canterbury,35.59240339999999,-97.5372543,Park,fountain,health; point_of_interest; establishment,OPERATIONAL,3.5,46,NA
ChIJ5bwMnc4PsocRZtYCRcpeuqw,Olive Garden Italian Restaurant,35.4613692,-97.6257047,Social Business,cafe,meal_takeaway; bar; restaurant; food; point_of_interest; establishment,OPERATIONAL,4.1,2379,NA
ChIJ5c2opxMZsocR1ADuF6E37A8,People's Church,35.5644481,-97.49907999999999,Place of Worship,place of worship,church; place_of_worship; point_of_interest; establishment,OPERATIONAL,4.8,296,NA
ChIJ5c8GtRwfsocR_G0pb201fs0,New Covenant United Methodist Church,35.628054,-97.477904,Place of Worship,place of worship,church; place_of_worship; point_of_interest; establishment,OPERATIONAL,4.6,37,NA
ChIJ5dq71woDsocRPH5q2BqJoR4,HunnyBunny Biscuit Co.,35.6079561,-97.6246786,Social Business,cafe,cafe; restaurant; food; point_of_interest; store; establishment,OPERATIONAL,4.2,190,NA
ChIJ5eFLKbkLsocR5Rrs2rwfb_g,Mountain Park Master,35.3813538,-97.72578320000001,Park,park,park; point_of_interest; establishment,OPERATIONAL,3.5,2,NA
ChIJ5epGlm8FsocRR4D5rKM_hEg,Eldon Lyon Park,35.5094106,-97.64242379999999,Park,park,park; tourist_attraction; point_of_interest; establishment,OPERATIONAL,4.4,568,NA
ChIJ5fS8K30XsocRbhPyGFpoJSM,Scissortail Park,35.4576067,-97.5181174,Park,park,park; point_of_interest; establishment,OPERATIONAL,4.8,2484,NA
ChIJ5SlD2NU9socRpHV2GbCb8-E,Our Lost Souls Ministry,35.4378433,-97.43175199999999,Place of Worship,place of worship,church; place_of_worship; point_of_interest; establishment,OPERATIONAL,0,0,NA
ChIJ5V3kX3UPsocRtw4s0BeaJJM,SHIRDI SAI TEMPLE OF OKC,35.4774287,-97.6548654,Place of Worship,place of worship,place_of_worship; point_of_interest; establishment,OPERATIONAL,4.7,14,NA
ChIJ5VSZ8nYQsocRDikv8w6mXEQ,Servants Church & Community Outreach Center,35.4991288,-97.5829704,Place of Worship,place of worship,church; place_of_worship; point_of_interest; establishment,OPERATIONAL,5,1,NA
ChIJ5w0nd04XsocRl-bkSNLRAwM,Cheever's Cafe,35.4937158,-97.5190475,Social Business,cafe,restaurant; food; point_of_interest; establishment,OPERATIONAL,4.7,1857,NA
ChIJ5XPZdOoVsocRCK0xu0NHhQw,Walmart Patio & Garden Services,35.332783,-97.51294999999999,Park,garden,general_contractor; point_of_interest; establishment,OPERATIONAL,0,0,NA
ChIJ5XV_-jwFsocR0Nuk0vBzIkA,Tropicana Village (Neighborhood),35.499056,-97.65314599999999,Community Space,community center,point_of_interest; establishment,OPERATIONAL,0,0,NA
ChIJ5XV_-jwFsocR0Nuk0vBzIkA,Tropicana Village (Neighborhood),35.499056,-97.65314599999999,Community Space,city hall,point_of_interest; establishment,OPERATIONAL,0,0,NA
ChIJ5YB7gZkXsocRhCtAKAdvodY,Oklahoma city convention,35.458231,-97.51587699999999,Community Space,community center,point_of_interest; establishment,OPERATIONAL,0,0,NA
ChIJ5ybKZatqsocRXUJHDnUGxMs,Highland Baptist Church,35.334966,-97.443054,Place of Worship,place of worship,church; place_of_worship; point_of_interest; establishment,OPERATIONAL,4.6,37,NA
ChIJ5ymoXo0TsocRVAmcgBmggY4,Taylor Recreation Center,35.3966396,-97.535952,Community Space,community center,point_of_interest; establishment,OPERATIONAL,4.1,67,NA
ChIJ5ymPuKAWsocR_vph_2cdCJM,McDonald's,35.4212417,-97.50720969999999,Social Business,cafe,cafe; restaurant; food; point_of_interest; store; establishment,OPERATIONAL,3.4,2405,NA
ChIJ5YYjI40PsocRh5nDoSxIn7M,Vision Community Church - HTTL Cong Dong,35.4909608,-97.6203177,Place of Worship,place of worship,church; place_of_worship; point_of_interest; establishment,OPERATIONAL,5,2,NA
ChIJ5zPx-3MJsocRCHio60M72ts,"The Well Church, Mustang",35.4493612,-97.7495134,Place of Worship,place of worship,church; place_of_worship; point_of_interest; establishment,OPERATIONAL,5,7,NA
ChIJ6_l0wdEbsocRfYyO2-7O8x4,All Nations Cathedral,35.5560022,-97.5344343,Place of Worship,place of worship,church; place_of_worship; point_of_interest; establishment,OPERATIONAL,4.5,2,NA
ChIJ6_PmqPE4socRGzJg_vbnUmk,Grace Place Baptist Church,35.37396030000001,-97.3166983,Place of Worship,place of worship,church; place_of_worship; point_of_interest; establishment,OPERATIONAL,4.7,33,NA
ChIJ6_Pznf4VsocRvImoT9QOWLQ,Cottonwood Park,35.3360834,-97.50992,Park,park,park; point_of_interest; establishment,OPERATIONAL,4.4,7,NA
ChIJ62f59ZIPsocRs13Ymxdb9XI,Bethel Assembly of God,35.4865135,-97.6357791,Place of Worship,place of worship,church; place_of_worship; point_of_interest; establishment,OPERATIONAL,5,2,NA
ChIJ62sBjeMesocRW1iFYJ9fbNk,Dunkin',35.6250043,-97.486252,Social Business,cafe,bakery; meal_takeaway; cafe; restaurant; food; point_of_interest; store; establishment,OPERATIONAL,4.1,668,NA
ChIJ63vqC-4LsocRzPJfEtzfesI,Mustang Church of the Nazarene,35.391105,-97.71017599999999,Place of Worship,place of worship,church; place_of_worship; point_of_interest; establishment,OPERATIONAL,4.7,39,NA
ChIJ64y6onwksocRHVeLAxnAf9c,Mt Moriah Baptist Church,35.5652503,-97.34242239999999,Place of Worship,place of worship,church; place_of_worship; point_of_interest; establishment,OPERATIONAL,4.3,10,NA
ChIJ66xyWb8LsocRdJiovynoNVU,Friends of Mustang Pub Lib Inc,35.384226,-97.7244867,Community Space,library,library; point_of_interest; establishment,OPERATIONAL,0,0,NA
ChIJ66xyWb8LsocRTTB_7-bxKMg,Basics Plus Books,35.384226,-97.7244867,Social Business,bookstore,book_store; point_of_interest; store; establishment,CLOSED_TEMPORARILY,5,1,TRUE
ChIJ6712J70fsocR1JMSqHiNJ-c,Beacon Coffee Stand,35.6817959,-97.58407369999999,Social Business,cafe,cafe; restaurant; food; point_of_interest; store; establishment,OPERATIONAL,4.8,100,NA
ChIJ6798WC0PsocRjZHU6zzmRY4,Wired,35.4656855,-97.6495254,Social Business,cafe,cafe; food; point_of_interest; store; establishment,OPERATIONAL,0,0,NA
ChIJ67gH9bEQsocRGu5y3NEFYms,Teapioca Lounge,35.4935997,-97.530272,Social Business,cafe,cafe; food; point_of_interest; store; establishment,OPERATIONAL,4.5,868,NA
ChIJ67jregkXsocR05UtMTb5p6M,Catalyst Behavioral Services Community House Residential Program,35.4807823,-97.4848153,Community Space,community center,health; point_of_interest; establishment,OPERATIONAL,5,8,NA
ChIJ67PnNhwfsocRG8fJ3B5pnLU,Southern Hills Christian Church (Disciples Of Christ),35.6257517,-97.4790908,Place of Worship,place of worship,church; place_of_worship; point_of_interest; establishment,OPERATIONAL,3.8,26,NA
ChIJ67UaIx8DsocR3dvyHX509pw,COMPASSION CHURCH,35.6245557,-97.6352319,Place of Worship,place of worship,church; place_of_worship; point_of_interest; establishment,OPERATIONAL,4.9,18,NA
ChIJ68ZPCUMFsocRpaBWPfthIdE,Cantrell Recital Hall - SNU,35.512791,-97.629431,Community Space,city hall,point_of_interest; establishment,CLOSED_TEMPORARILY,4.4,16,TRUE
ChIJ69xhIw0GsocRzUt5C-8ocOc,Grace Church,35.5162143,-97.7076008,Place of Worship,place of worship,church; place_of_worship; point_of_interest; establishment,OPERATIONAL,4.9,8,NA
ChIJ6aaKe7VqsocRX72KcI156Ok,Veterans Memorial Park,35.3334122,-97.45943349999999,Park,park,park; tourist_attraction; point_of_interest; establishment,OPERATIONAL,4.7,682,NA
ChIJ6bSFo3MZsocRqSaeYUqRwoU,Royal Vibez,35.509188,-97.4940192,Social Business,cafe,cafe; food; point_of_interest; establishment,OPERATIONAL,0,0,NA
ChIJ6c6ocYo9socRHU6OMpU9gG0,Del City Community Center,35.45047,-97.43667889999999,Community Space,community center,point_of_interest; establishment,OPERATIONAL,4.5,113,NA
ChIJ6c6ocYo9socRHU6OMpU9gG0,Del City Community Center,35.45047,-97.43667889999999,Community Space,city hall,point_of_interest; establishment,OPERATIONAL,4.5,113,NA
ChIJ6c8SiTcbsocRvgRcDi2uj70,Luther Dulaney Park,35.513708,-97.5685474,Park,park,park; point_of_interest; establishment,OPERATIONAL,4.3,3,NA
ChIJ6ce0tp0asocRZBVXFO0VpJ8,Will Rogers Senior Center,35.5051269,-97.5801865,Community Space,community center,point_of_interest; establishment,OPERATIONAL,4.4,61,NA
ChIJ6cqn9SsXsocRpxhOkgu3Vj4,Clarity Coffee,35.4679995,-97.5202197,Social Business,cafe,cafe; food; point_of_interest; store; establishment,OPERATIONAL,4.7,579,NA
ChIJ6de3RCkRsocRvBABeWCuwsQ,Stitch Cafe West Village,35.4667078,-97.52688979999999,Social Business,cafe,cafe; food; point_of_interest; establishment,OPERATIONAL,4.5,383,NA
ChIJ6eb8d-kIsocR__qA_DntP2U,IHOP,35.4656052,-97.722719,Social Business,cafe,restaurant; food; point_of_interest; establishment,OPERATIONAL,3.9,1561,NA
ChIJ6eH4NUUBsocRZSzbnLYbgC0,US Environmental Services,35.59369909999999,-97.7093568,Community Space,city hall,courthouse; point_of_interest; establishment,OPERATIONAL,0,0,NA
ChIJ6Q3iwUVrsocRdT9Xpsye9VA,Okie Tonk Cafe,35.32042819999999,-97.50892490000001,Social Business,cafe,restaurant; bar; food; point_of_interest; establishment,OPERATIONAL,4.1,850,NA
ChIJ6Qef82ARsocRaApE1agkx6k,Grant Square,35.4202414,-97.54719,Park,square,shopping_mall; point_of_interest; establishment,OPERATIONAL,4,1042,NA
ChIJ6QMkYHgXsocRxZb8So8v2WQ,CLUB DE NUTRICION REFORMA NUTRICION,35.4206341,-97.5166143,Social Business,cafe,cafe; food; point_of_interest; establishment,OPERATIONAL,3,2,NA
ChIJ6R2YdzsBsocRRWhqU9qg3u8,Surrey Hills Baptist Church,35.5959809,-97.72766709999999,Place of Worship,place of worship,church; place_of_worship; point_of_interest; establishment,OPERATIONAL,4.7,16,NA
ChIJ6RDbNx0_socRqcrkyr0EXhQ,Scooter's Coffee,35.4164122,-97.4232162,Social Business,cafe,cafe; food; point_of_interest; store; establishment,OPERATIONAL,4.2,60,NA
ChIJ6ScoQ8MLsocRu2tDIfsAeLM,Braum's Ice Cream & Dairy Store,35.394381,-97.72512019999999,Social Business,cafe,grocery_or_supermarket; restaurant; food; point_of_interest; store; establishment,OPERATIONAL,3.9,925,NA
ChIJ6ScYHXMIsocRLp68WQID8XI,Tao Cha,35.4831182,-97.7614253,Social Business,cafe,cafe; restaurant; food; point_of_interest; establishment,OPERATIONAL,4.6,411,NA
ChIJ6SI5OqMbsocR5ix_B1ogeWg,Britton Road Church of Christ,35.5652327,-97.56085519999999,Place of Worship,place of worship,church; place_of_worship; point_of_interest; establishment,OPERATIONAL,4.8,20,NA
ChIJ6Sohuxs-socR3nSrUbpTlUY,Mackleman Park,35.410356,-97.4308794,Park,park,park; point_of_interest; establishment,OPERATIONAL,4.4,94,NA
ChIJ6SV1iuYZsocRU1OSUTB7_-M,Garden Design Associates Inc,35.5153463,-97.50746,Park,garden,general_contractor; point_of_interest; establishment,OPERATIONAL,5,2,NA
ChIJ6SWxWJkFsocRwVAUrvMPNbk,Lake Overholser Park,35.483391,-97.678989,Park,park,park; tourist_attraction; point_of_interest; establishment,OPERATIONAL,4.5,2178,NA
ChIJ6Tj4HrIdsocRPJ-QGK5BUIs,Walmart Patio & Garden Services,35.639668,-97.53256999999999,Park,garden,general_contractor; point_of_interest; establishment,OPERATIONAL,0,0,NA
ChIJ6TLsGks7socR5pz6kBfyulM,Lyons garden development,35.4943999,-97.3360874,Park,garden,point_of_interest; establishment,OPERATIONAL,0,0,NA
ChIJ6UHcn3IFsocRaPY-pHezZsI,Sophie softball practice building,35.5514054,-97.6367892,Park,park,park; point_of_interest; establishment,OPERATIONAL,0,0,NA
ChIJ6V3ivXIIsocRNVZmKl4tt6c,Starbucks,35.481238,-97.76350699999999,Social Business,cafe,cafe; food; point_of_interest; store; establishment,OPERATIONAL,4.1,230,NA
ChIJ6VBR1C4XsocR4wb76JOjtqQ,Emerald Square Assisted Living,35.4747653,-97.65502289999999,Park,square,health; point_of_interest; establishment,OPERATIONAL,3.4,21,NA
ChIJ6VWgSxkfsocR-btAl5ruL-Q,Miki's Trail Dog Park,35.6225246,-97.4758356,Park,park,tourist_attraction; park; point_of_interest; establishment,OPERATIONAL,4.7,637,NA
ChIJ6XXmQ3MXsocRAiRKBAqFn-Y,Pitts Recreation Center,35.4884187,-97.48669550000001,Community Space,community center,point_of_interest; establishment,OPERATIONAL,4.6,45,NA
ChIJ6XYxNmkXsocRz67mFN5vIjo,Serve Midtown Church of Christ,35.4788927,-97.5205361,Place of Worship,place of worship,church; place_of_worship; point_of_interest; establishment,OPERATIONAL,0,0,NA
ChIJ6yL2TWZHsocRXkDSXbz-Ny4,Willis Diner Hall,35.3037905,-97.3449246,Community Space,city hall,point_of_interest; establishment,OPERATIONAL,0,0,NA
ChIJ6ynTM0AFsocRbRC85rEXUUw,Saint Ann Retirement Center,35.567123,-97.64645399999999,Community Space,community center,health; point_of_interest; establishment,OPERATIONAL,3.4,10,NA
ChIJ6yPYdj49socR6GkJicjkisg,True Light Missionary Baptist Church,35.4928769,-97.4111085,Place of Worship,place of worship,church; place_of_worship; point_of_interest; establishment,OPERATIONAL,4.4,7,NA
ChIJ6ZayrBc8socREWGoOXmcypU,Baskin-Robbins,35.4434639,-97.37162169999999,Social Business,cafe,food; point_of_interest; store; establishment,OPERATIONAL,4.2,191,NA
ChIJ7_naM3drsocR8KDCw_2N-hc,Heartland Free Will Baptist Church,35.2940075,-97.5127954,Place of Worship,place of worship,church; place_of_worship; point_of_interest; establishment,OPERATIONAL,4.4,8,NA
ChIJ7-_zoGkDsocRnykpbckHKtM,"Sunshine's Garden Design, LLC",35.4923015,-97.56698,Park,garden,general_contractor; point_of_interest; establishment,OPERATIONAL,5,11,NA
ChIJ7-KgEXtrsocRXhEzlRb3Bok,Baer Hall Homes,35.30141440000001,-97.51860769999999,Community Space,city hall,general_contractor; point_of_interest; establishment,OPERATIONAL,4.8,6,NA
ChIJ71AFtDs-socRzQWyjzFXlB8,Sonic Drive-In,35.3954146,-97.4231161,Social Business,cafe,restaurant; food; point_of_interest; store; establishment,OPERATIONAL,3.7,991,NA
ChIJ71CwarQcsocRaqmda8Qv1YY,Martin Park Nature Center,35.60581060000001,-97.60841839999999,Park,park,park; tourist_attraction; point_of_interest; establishment,OPERATIONAL,4.7,1881,NA
ChIJ71XiVoYQsocRB-2WlNL1Jas,Cornerstone United Methodist Church Activity Building,35.4951681,-97.56485169999999,Place of Worship,place of worship,church; place_of_worship; point_of_interest; establishment,OPERATIONAL,5,2,NA
ChIJ72p0Rw05socROfyo4O19BeQ,Ground Zero Community Youth,35.4091058,-97.3184247,Community Space,community center,point_of_interest; establishment,OPERATIONAL,0,0,NA
ChIJ74FKlysWsocRSPaOTu-L-YE,Howard Memorial Baptist Church,35.4636882,-97.4408538,Place of Worship,place of worship,church; place_of_worship; point_of_interest; establishment,OPERATIONAL,4.3,6,NA
ChIJ74s18LYPsocRXGek8luSEkk,Panera Bread,35.461046,-97.626615,Social Business,cafe,cafe; bakery; meal_takeaway; restaurant; food; point_of_interest; store; establishment,OPERATIONAL,4.1,444,NA
ChIJ76l1OTc0socRjt5GzB_TuGA,First Baptist Church,35.4066363,-97.162014,Place of Worship,place of worship,church; place_of_worship; point_of_interest; establishment,OPERATIONAL,4.3,16,NA
ChIJ78HkHYscsocRD8HCkZIj-I4,Black Bear Diner - Quail Springs,35.6103497,-97.5708111,Social Business,cafe,restaurant; food; point_of_interest; establishment,OPERATIONAL,4.5,2513,NA
ChIJ7a_4xEoKsocRhqmI0DC3aec,Ranchwood Church,35.3814481,-97.7425427,Place of Worship,place of worship,church; place_of_worship; point_of_interest; establishment,OPERATIONAL,3.5,2,NA
ChIJ7b2TV-QdsocRpi3BnT3hxrY,Valencia Splash Pad,35.6647413,-97.55903169999999,Park,park,park; point_of_interest; establishment,OPERATIONAL,4.5,2,NA
ChIJ7d1VPTEGsocR39qg1R7SkZc,Mae's Home Cooking,35.50822230000001,-97.7343748,Social Business,cafe,restaurant; food; point_of_interest; establishment,OPERATIONAL,3.9,349,NA
ChIJ7dpwR1gasocRBhDB9BvUACs,Cous Cous Cafe,35.53479129999999,-97.56617240000001,Social Business,cafe,restaurant; food; point_of_interest; establishment,OPERATIONAL,4.5,1185,NA
ChIJ7dZ8li4FsocRf9w2ZV0f1S0,63rd Donuts,35.5363657,-97.6180426,Social Business,cafe,bakery; restaurant; food; point_of_interest; store; establishment,OPERATIONAL,4.8,190,NA
ChIJ7eouEBYasocRgvwAoOPTAVc,Walmart Garden Center,35.5257955,-97.5396829,Park,garden,furniture_store; home_goods_store; general_contractor; point_of_interest; store; establishment,OPERATIONAL,1.5,2,NA
ChIJ7fbTXKIYsocR69tzIb8QiI0,Clara Waters Community Corrections Center,35.5716553,-97.44889099999999,Community Space,community center,point_of_interest; establishment,OPERATIONAL,4.8,5,NA
ChIJ7fbTXKIYsocRerNjaXUMX5o,McDonald's,35.5932785,-97.4362977,Social Business,cafe,cafe; restaurant; food; point_of_interest; store; establishment,OPERATIONAL,3.2,752,NA
ChIJ7Q9KmMoQsocRKuaBhdXckq0,Oklahoma Hall of Fame,35.4833784,-97.52619039999999,Community Space,city hall,tourist_attraction; museum; point_of_interest; store; establishment,OPERATIONAL,4.5,221,NA
ChIJ7QrID1wTsocRjTmahBTkIog,Soda Pop's #1,35.3483652,-97.5308141,Social Business,cafe,restaurant; food; point_of_interest; establishment,OPERATIONAL,4.4,750,NA
ChIJ7RRgseAFsocRTk3LwaX7RP4,Oasis The Place Of Refreshing,35.5209262,-97.6185326,Place of Worship,place of worship,church; place_of_worship; point_of_interest; establishment,OPERATIONAL,5,1,NA
ChIJ7T5hOxgasocRaXi9OGYPxBc,Calvert's Plant Interiors Inc.,35.5253369,-97.53460349999999,Park,garden,general_contractor; food; point_of_interest; store; establishment,OPERATIONAL,4.6,142,NA
ChIJ7TUpYbIWsocR9TnGKXyIQhI,Walker Avenue Bapitst Church,35.4311721,-97.521705,Place of Worship,place of worship,church; place_of_worship; point_of_interest; establishment,OPERATIONAL,0,0,NA
ChIJ7Ue7UTwXsocRgNnRl1wuA30,OKLAHOMA SCHOOL OF SCIENCE & MATH LIBRARY,35.4782618,-97.5060786,Community Space,library,library; point_of_interest; establishment,OPERATIONAL,0,0,NA
ChIJ7UKpEJgdsocRURIW7PDhUV0,Park,35.65985149999999,-97.56990259999999,Park,park,park; point_of_interest; establishment,OPERATIONAL,4.7,3,NA
ChIJ7VE5MY4IsocRbfOSLvw9NDI,Yukon Church,35.4801697,-97.73136079999999,Place of Worship,place of worship,church; place_of_worship; point_of_interest; establishment,OPERATIONAL,4.4,25,NA
ChIJ7wiJ8qYVsocRz0q3jg6p0S4,Renew Ministries,35.3695286,-97.4976113,Place of Worship,place of worship,place_of_worship; point_of_interest; establishment,OPERATIONAL,5,2,NA
ChIJ7WQQ2K8QsocRY4URTIMKyEo,Classen Coffee Co.,35.4946593,-97.53357559999999,Social Business,cafe,cafe; food; point_of_interest; store; establishment,OPERATIONAL,4.6,322,NA
ChIJ7YskXtgZsocRhE0ToQP5VAM,NE OKC Community And Cultural Center,35.5093357,-97.4947188,Community Space,community center,point_of_interest; establishment,OPERATIONAL,4.8,117,NA
ChIJ7YV2zeMHsocRCHpHAIA8MnE,First Free Will Baptist Church,35.4933983,-97.76956779999999,Place of Worship,place of worship,church; place_of_worship; point_of_interest; establishment,OPERATIONAL,4,1,NA
ChIJ7zAV6qYYsocRcw5fSwk-SAE,Best of the West Cafe,35.5834039,-97.4419362,Social Business,cafe,restaurant; food; point_of_interest; establishment,OPERATIONAL,3.6,8,NA
ChIJ7zVPUTDlrYcRD8R1fOgI3a4,Kingdom Of Love Foundation Center,35.4935744,-97.6478789,Place of Worship,place of worship,church; place_of_worship; point_of_interest; establishment,OPERATIONAL,5,2,NA
ChIJ8-8cjiEQsocRJTW4NqRFIMc,Heartland Baptist Bookstore,35.4773942,-97.60666429999999,Social Business,bookstore,book_store; point_of_interest; store; establishment,OPERATIONAL,4.9,22,NA
ChIJ80ErRm8csocRocMiKZI5wog,Lowe's Home Improvement,35.6067382,-97.5561463,Park,fountain,hardware_store; furniture_store; home_goods_store; point_of_interest; store; establishment,OPERATIONAL,4,1528,NA
ChIJ81BpEZwasocRalunbolGObQ,Gospel Chapel Church,35.5068257,-97.5836252,Place of Worship,place of worship,place_of_worship; point_of_interest; establishment,OPERATIONAL,0,0,NA
ChIJ81EYX9gVsocR3lgeIGr4_AM,Giac Quang Buddhist Temple,35.4209355,-97.46475500000001,Place of Worship,place of worship,place_of_worship; point_of_interest; establishment,OPERATIONAL,4.4,7,NA
ChIJ83JsVhIisocR0F0Db9Lz_Qw,Oakdale Baptist Church,35.5795386,-97.4140805,Place of Worship,place of worship,church; place_of_worship; point_of_interest; establishment,OPERATIONAL,4.7,10,NA
ChIJ83mukFgcsocRx3SPRhiwAR4,Quail Springs Baptist Church,35.6189851,-97.5692443,Place of Worship,place of worship,church; place_of_worship; point_of_interest; establishment,OPERATIONAL,4.7,105,NA
ChIJ84bbXrIEsocRv6jXhSJIZ-Y,Lake Hefner Dam,35.5749878,-97.6143321,Park,park,park; point_of_interest; establishment,OPERATIONAL,4.7,106,NA
ChIJ86N9TIwSsocRSBCfxCGNrYM,Southwest Church of Christ,35.3642134,-97.5687989,Place of Worship,place of worship,church; place_of_worship; point_of_interest; establishment,OPERATIONAL,4.5,20,NA
ChIJ87nMjwYcsocRNQVXi-zhA_o,Unity Christian Center,35.5977542,-97.53245030000001,Place of Worship,place of worship,church; place_of_worship; point_of_interest; establishment,OPERATIONAL,4.9,8,NA
ChIJ88ycQsMdsocRtlUAKMwjmsQ,Edmond Trinity Christian,35.65182100000001,-97.537729,Place of Worship,place of worship,church; place_of_worship; point_of_interest; establishment,OPERATIONAL,5,6,NA
ChIJ892dHoQXsocR-WvVvB1Hoq8,Edwards Park,35.439375,-97.4410439,Park,park,park; point_of_interest; establishment,OPERATIONAL,0,0,NA
ChIJ8cl2QEs3socRNbCDDW5mntc,Tasty Burger,35.434879,-97.24777999999999,Social Business,cafe,restaurant; food; point_of_interest; establishment,OPERATIONAL,4.6,460,NA
ChIJ8d_jxAgXsocRFEd9NraPM7A,Northeast Park,35.5039436,-97.4899727,Park,park,park; point_of_interest; establishment,OPERATIONAL,4.3,3,NA
ChIJ8evSAiAHsocRIXzXUc6eEX0,Landmark Pentecostal,35.5086783,-97.735029,Place of Worship,place of worship,church; place_of_worship; point_of_interest; establishment,OPERATIONAL,4.4,7,NA
ChIJ8ewXPngbsocRDv7WyYzixgM,"Fifth Church of Christ, Scientist",35.5748729,-97.56769,Place of Worship,place of worship,church; place_of_worship; point_of_interest; establishment,OPERATIONAL,4.2,5,NA
ChIJ8fUtEH1tsocREeqsVkEoWrQ,Sonic Drive-In,35.2916025,-97.6094416,Social Business,cafe,restaurant; food; point_of_interest; store; establishment,OPERATIONAL,4.2,404,NA
ChIJ8Qa3Po8ZsocRCgIp0MoNY-w,Taste of Soul Giant Egg Roll,35.4356486,-97.4337197,Park,fountain,meal_takeaway; restaurant; food; point_of_interest; establishment,OPERATIONAL,4.7,299,NA
ChIJ8SI-qy4UsocRP6yaB5ehvNM,Salon Del Reino,35.4166657,-97.48681,Place of Worship,place of worship,church; place_of_worship; point_of_interest; establishment,OPERATIONAL,0,0,NA
ChIJ8TjvPJgpsocRpkfySttCBNM,The Chicken Shack,35.6672591,-97.1991802,Social Business,cafe,restaurant; food; point_of_interest; establishment,OPERATIONAL,4.6,1220,NA
ChIJ8UfGAFIXsocRs8RsJzGCiaU,Labyrinth Temple,35.4955584,-97.5196299,Place of Worship,place of worship,place_of_worship; point_of_interest; establishment,OPERATIONAL,5,9,NA
ChIJ8UOvaQMcsocRwxCLLsL-w0c,Western Avenue Baptist Church,35.6019741,-97.53089829999999,Place of Worship,place of worship,church; place_of_worship; point_of_interest; establishment,OPERATIONAL,4.3,11,NA
ChIJ8VqeBm4bsocRGruyy4plU8w,Lake Front Hefner,35.5737255,-97.5793346,Park,park,park; point_of_interest; establishment,OPERATIONAL,4.7,343,NA
ChIJ8w8nJ-sXsocRxddbO9uKglc,The Bryant Center,35.4912171,-97.45886420000001,Community Space,community center,point_of_interest; establishment,OPERATIONAL,4.5,70,NA
ChIJ8wU7VdcXsocRRdlAz4cNqSg,High Tech Growing,35.4210891,-97.4910014,Park,garden,point_of_interest; store; establishment,OPERATIONAL,0,0,NA
ChIJ8ww2BjAXsocR3FC7edCaLYE,Frontline Church Downtown,35.4786465,-97.5159692,Place of Worship,place of worship,church; place_of_worship; point_of_interest; establishment,OPERATIONAL,3.5,163,NA
ChIJ8xqH7ZQLsocRPwXM2kSijnM,Meadowbrook Park,35.3825617,-97.7167807,Park,park,park; point_of_interest; establishment,OPERATIONAL,3.9,10,NA
ChIJ8xUM32o7socRqZI28fQmsPA,All American Dixie Diner,35.493416,-97.331362,Social Business,cafe,restaurant; food; point_of_interest; establishment,OPERATIONAL,4.5,1193,NA
ChIJ8yLpth4WsocRN0rfHM_ZPaI,New Testament Christian Church,35.4423621,-97.44115769999999,Place of Worship,place of worship,church; place_of_worship; point_of_interest; establishment,OPERATIONAL,5,14,NA
ChIJ8YR1wPgFsocRsdmwbJFBQgE,Route 66 Park Ampitheater,35.4958869,-97.6914006,Park,park,tourist_attraction; park; point_of_interest; establishment,OPERATIONAL,4.6,569,NA
ChIJ8zaEaTgbsocR7mlGAvQRQ8k,Duffys Dog Park,35.5775248,-97.5531693,Park,park,park; point_of_interest; establishment,OPERATIONAL,4.6,14,NA
ChIJ8Zph-WQRsocRUqTL5vHeh18,Rose Assembly Full Gospel,35.4248498,-97.55484299999999,Place of Worship,place of worship,church; place_of_worship; point_of_interest; establishment,OPERATIONAL,4.6,14,NA
ChIJ9_scsJ4EsocRpbJqyyPp-js,McDonald's,35.5812119,-97.6378664,Social Business,cafe,cafe; restaurant; food; point_of_interest; store; establishment,OPERATIONAL,3.5,701,NA
ChIJ9_tG_ZM6socR8LD0DrzD3cA,Harley's Cafe,35.4935532,-97.2817669,Social Business,cafe,restaurant; food; point_of_interest; establishment,OPERATIONAL,4.6,584,NA
ChIJ900lnKcXsocRCVa-IyZYZp4,House of Prayer Church,35.4789458,-97.48002110000002,Place of Worship,place of worship,church; place_of_worship; point_of_interest; establishment,OPERATIONAL,4.9,21,NA
ChIJ90ngrpQ9socRz3VhlkOIWq0,Reed Conference Center,35.4467233,-97.4205152,Community Space,community center,point_of_interest; establishment,OPERATIONAL,4.3,464,NA
ChIJ90vFiFQSsocRPa5mWV1m0I0,Fountain Park Family Physicians,35.376084,-97.5727422,Park,fountain,doctor; health; point_of_interest; establishment,OPERATIONAL,2.7,15,NA
ChIJ90vXRhURsocR7y_iEv03_mk,Beer City Music Hall,35.4703049,-97.5319631,Community Space,city hall,point_of_interest; establishment,OPERATIONAL,5,2,NA
ChIJ942FydEPsocR2NHilKv1Hdw,Malcolm hall properties,35.4617429,-97.6880064,Community Space,city hall,point_of_interest; establishment,OPERATIONAL,0,0,NA
ChIJ96IM5EAXsocRiX8LsuIZddk,Oklahoma Department of Libraries,35.4878937,-97.50794929999999,Community Space,library,library; point_of_interest; establishment,OPERATIONAL,4.9,10,NA
ChIJ97kzLyRAsocRl0n7VxJP20U,Landmark Baptist Church,35.308583,-97.42343439999999,Place of Worship,place of worship,church; place_of_worship; point_of_interest; establishment,OPERATIONAL,5,1,NA
ChIJ9819VPMPsocRp6uBaXCOVnc,Braum's Ice Cream & Dairy Store,35.493749,-97.63311279999999,Social Business,cafe,grocery_or_supermarket; restaurant; food; point_of_interest; store; establishment,OPERATIONAL,4.1,942,NA
ChIJ98ClXwU_socRYPgvpksN8HM,Liberty Trails Park,35.3953934,-97.41980590000001,Park,park,park; point_of_interest; establishment,OPERATIONAL,0,0,NA
ChIJ9dR8-uMZsocRbVF-sWpbhUU,Starbucks OKC Zoo,35.5233638,-97.47230909999999,Social Business,cafe,cafe; food; point_of_interest; store; establishment,OPERATIONAL,0,0,NA
ChIJ9fswb1MXsocR2Rb4CdGPQNw,Literati Press Bookshop,35.4998575,-97.5227359,Social Business,bookstore,book_store; point_of_interest; store; establishment,OPERATIONAL,5,37,NA
ChIJ9fUPMH4XsocRqzFvZnCOOAs,Eastside Church of Christ,35.508157800000014,-97.4848705,Place of Worship,place of worship,church; place_of_worship; point_of_interest; establishment,OPERATIONAL,4.7,21,NA
ChIJ9R3ZeQAbsocRWGEsL2lNUX8,Mayfair Park,35.5170771,-97.5654598,Park,park,park; point_of_interest; establishment,OPERATIONAL,5,2,NA
ChIJ9S9YSNYHsocREo8Vxb7d50s,Vandament Ave Baptist Church,35.4928646,-97.74727419999999,Place of Worship,place of worship,church; place_of_worship; point_of_interest; establishment,OPERATIONAL,4.5,19,NA
ChIJ9SVktCABsocRzJZyN9gk8mk,GoodGrow Garden Supply,35.6404352,-97.74447119999999,Park,garden,point_of_interest; store; establishment,OPERATIONAL,5,1,NA
ChIJ9TKSePIWsocRcEZ7_URrUz0,Top 'O' Town Park,35.44663620000001,-97.4922189,Park,park,park; point_of_interest; establishment,OPERATIONAL,3.7,46,NA
ChIJ9UxBQtQXsocRYk3rO91cb2k,Marko Koenig Cafe,35.4636023,-97.47746029999999,Social Business,cafe,cafe; food; point_of_interest; establishment,OPERATIONAL,0,0,NA
ChIJ9wBj710FsocRjEQY3vvDR3M,Bethany YMCA,35.5050991,-97.6316366,Community Space,community center,gym; health; point_of_interest; establishment,OPERATIONAL,4.1,87,NA
ChIJ9XKZ3OgUsocRFV6-7f0wO-k,Savory Bites,35.32015519999999,-97.5294205,Social Business,cafe,restaurant; food; point_of_interest; establishment,OPERATIONAL,4.7,536,NA
ChIJ9xQ7Wf4esocRs1uAoFwWqUs,The Home Depot,35.6346297,-97.4849931,Park,fountain,hardware_store; furniture_store; home_goods_store; point_of_interest; store; establishment,OPERATIONAL,4.2,1065,NA
ChIJ9zsE2XMasocRUs0jOfuhb5s,Diversity Center of Oklahoma Inc.,35.5110865,-97.5513261,Community Space,community center,point_of_interest; establishment,OPERATIONAL,4.9,48,NA
ChIJ9ZX-XEgDsocR5S5iyHSNoFs,Whataburger,35.6073637,-97.6202612,Social Business,cafe,restaurant; meal_takeaway; food; point_of_interest; establishment,OPERATIONAL,3.9,1142,NA
ChIJa-mCy1sWsocRSVlAedDm4G8,New Beginning Worship Center,35.4204239,-97.5373327,Place of Worship,place of worship,church; place_of_worship; point_of_interest; establishment,OPERATIONAL,4.5,24,NA
ChIJA05XnykXsocR_K_5faGn0o8,Myriad Botanical Gardens,35.46533110000001,-97.51790729999999,Park,fountain,park; point_of_interest; establishment,OPERATIONAL,4.7,7638,NA
ChIJA05XnykXsocR_K_5faGn0o8,Myriad Botanical Gardens,35.46533110000001,-97.51790729999999,Park,garden,park; point_of_interest; establishment,OPERATIONAL,4.7,7638,NA
ChIJA1kISt9psocRdNBwaa-dJtU,New Start Family Church,35.4068467,-97.53449769999999,Place of Worship,place of worship,church; place_of_worship; point_of_interest; establishment,OPERATIONAL,5,6,NA
ChIJa1Rz7UIFsocRMiZHBOKYeg0,Bethany First Church-Nazarene,35.5125709,-97.6316094,Place of Worship,place of worship,church; place_of_worship; point_of_interest; establishment,OPERATIONAL,4.7,109,NA
ChIJa2QP3ecPsocR5b0QRfDPxfE,Eastern Garden Supply 药店,35.4704796,-97.63001990000001,Park,garden,point_of_interest; establishment,OPERATIONAL,5,1,NA
ChIJa3Rs2j4LsocR2bCNBfosQ3w,Mustang Social Energy & Nutrition,35.3904545,-97.70381220000002,Social Business,cafe,cafe; food; health; point_of_interest; store; establishment,OPERATIONAL,4.9,24,NA
ChIJA3sEUSkasocRzFmn39oMuJQ,Gaslight Square,35.543386,-97.5296552,Park,square,transit_station; point_of_interest; establishment,OPERATIONAL,0,0,NA
ChIJa4sF9H0asocR9ulbMWUnodw,Lowe's Garden Center,35.5096883,-97.56762959999999,Park,garden,point_of_interest; store; establishment,OPERATIONAL,4.6,68,NA
ChIJA5CIT2UQsocRizpnlZgGTAA,Northwest Twenty-First Street Church,35.4909512,-97.57877700000002,Place of Worship,place of worship,church; place_of_worship; point_of_interest; establishment,OPERATIONAL,5,1,NA
ChIJa5soFtBrsocR3QEQQVMtqhA,Westmoore Trails Park,35.3159209,-97.5164885,Park,park,park; point_of_interest; establishment,OPERATIONAL,4.7,69,NA
ChIJa6oFVkUlsocRiOG7Y6WfbrM,Hiram Park,35.5540415,-97.3281258,Park,park,park; point_of_interest; establishment,OPERATIONAL,4.6,5,NA
ChIJA7fjSWAOsocRh06cy0yL2zo,The Home Depot Pro Institutional,35.4301545,-97.65360009999999,Park,fountain,point_of_interest; store; establishment,OPERATIONAL,5,1,NA
ChIJa7GFOmAcsocRGaPA2Ck43Dk,Barnes & Noble,35.6111687,-97.5664508,Social Business,bookstore,book_store; cafe; food; point_of_interest; store; establishment,OPERATIONAL,4.5,1604,NA
ChIJa7K-gLUTsocR1p0_5VGhDYI,Jack in the Box,35.3946519,-97.56511150000001,Social Business,cafe,restaurant; food; point_of_interest; establishment,OPERATIONAL,3.7,1476,NA
ChIJa7XB2y4XsocRJRs3YGZgaO4,Leadership Square Eye Care,35.4697168,-97.51697039999999,Park,square,health; point_of_interest; establishment,OPERATIONAL,5,8,NA
ChIJa8k76e4LsocR2QIHOAq-ZN8,Empowered Church,35.39249,-97.712873,Place of Worship,place of worship,church; place_of_worship; point_of_interest; establishment,OPERATIONAL,4.8,16,NA
ChIJa9jMruIPsocRtUOn9VO1XGY,Ministerio Pentecostes Shammah,35.49392570000001,-97.6520725,Place of Worship,place of worship,church; place_of_worship; point_of_interest; establishment,OPERATIONAL,5,3,NA
ChIJA9QWoiQFsocR4ZTfa5Qh-mI,Mentalitea and Coffee,35.5080476,-97.62889709999999,Social Business,cafe,cafe; food; point_of_interest; store; establishment,OPERATIONAL,4.9,28,NA
ChIJAa4vvGE7socRgZw6VZmVZS0,Walmart Patio & Garden Services,35.495974,-97.279399,Park,garden,general_contractor; point_of_interest; establishment,OPERATIONAL,0,0,NA
ChIJAAAAAAAAAAARs-qAHIAW5cc,Urban Lawn and Garden,35.5248898,-97.5549799,Park,garden,point_of_interest; establishment,OPERATIONAL,0,0,NA
ChIJaatsQ6MQsocRiWCyCSd4G2E,OCU Campus Bookstore,35.4952225,-97.54175579999999,Social Business,bookstore,book_store; point_of_interest; store; establishment,OPERATIONAL,4.4,29,NA
ChIJAbztQlgjsocRgylQb6MsZRA,Holy Temple First Pentecostal,35.5289689,-97.35335049999999,Place of Worship,place of worship,church; place_of_worship; point_of_interest; establishment,OPERATIONAL,0,0,NA
ChIJacQPp2MFsocR60Pu0iNbaJ0,Kensington Park,35.5597326,-97.62745579999999,Park,park,park; point_of_interest; establishment,OPERATIONAL,5,1,NA
ChIJAddSAE0FsocRsul2C3m05dU,Unity Spiritual Life Center,35.5141655,-97.61361099999999,Place of Worship,place of worship,church; place_of_worship; point_of_interest; establishment,OPERATIONAL,4.7,17,NA
ChIJAe2BKDQOsocRasDDn-_5Ib0,Crystal Lake,35.4515748,-97.6305915,Park,park,park; point_of_interest; establishment,OPERATIONAL,4.3,194,NA
ChIJae2WYloXsocRsd97jrT5crY,Perets Dessert & Coffee Bar,35.4667349,-97.5244282,Social Business,cafe,bakery; cafe; food; point_of_interest; store; establishment,OPERATIONAL,4.8,28,NA
ChIJaeeW1QsWsocRX6y2S7FTl6Y,Sequoyah Park,35.42661289999999,-97.4540263,Park,park,park; point_of_interest; establishment,OPERATIONAL,3.7,144,NA
ChIJAetsVAAisocR3h-XOas7zSA,Huddle House,35.5955079,-97.4367443,Social Business,cafe,meal_takeaway; restaurant; food; point_of_interest; establishment,OPERATIONAL,3.1,719,NA
ChIJaf_n9cwNsocRdjnW32UsYTI,Gateway Tabernacle Pentecostal,35.3964004,-97.65223859999999,Place of Worship,place of worship,church; place_of_worship; point_of_interest; establishment,OPERATIONAL,4.5,4,NA
ChIJAf6ABSwTsocRM_AeLZjM1OU,Braum's Ice Cream & Dairy Store,35.3335925,-97.562833,Social Business,cafe,food; point_of_interest; store; establishment,OPERATIONAL,4.2,485,NA
ChIJafBE2lcdsocR1Yo4bwVqa-8,Parkway Deli and Cafe,35.6119739,-97.5752564,Social Business,cafe,restaurant; food; point_of_interest; establishment,OPERATIONAL,0,0,NA
ChIJAfjSQ08TsocRKAaBh3pUCJI,Cinnamon Square Apartments,35.3951382,-97.56447949999999,Park,square,point_of_interest; establishment,OPERATIONAL,4.2,65,NA
ChIJAQAAAJAasocRiNMjw5VmTko,Yellow Book,35.5135639,-97.5788975,Social Business,bookstore,book_store; point_of_interest; store; establishment,OPERATIONAL,0,0,NA
ChIJAQAM2XMasocRoHlHnd5GyCU,Expressions Community Center,35.5116217,-97.551673,Community Space,community center,point_of_interest; establishment,OPERATIONAL,4.9,16,NA
ChIJAQBU-50XsocReXTaxBUn9ZI,Spiked. A Coffee Concept,35.4929351,-97.4807891,Social Business,cafe,cafe; food; point_of_interest; store; establishment,OPERATIONAL,4.9,35,NA
ChIJAQBwIckQsocRYZtU3drfGUA,Our Bible Ministries,35.479504,-97.5325514,Place of Worship,place of worship,church; place_of_worship; point_of_interest; establishment,OPERATIONAL,5,1,NA
ChIJAQCQuXUpsocRnWJXqpIpSLM,Luther Community Center,35.6547842,-97.1968333,Community Space,community center,point_of_interest; establishment,OPERATIONAL,4.9,7,NA
ChIJAQCwY50esocRBmfob3RovUU,Book Store,35.6239504,-97.5245128,Social Business,bookstore,book_store; point_of_interest; store; establishment,OPERATIONAL,0,0,NA
ChIJAQDwz4cDsocRmyXZ5qsqoYg,Worship Hearts,35.5863713,-97.6649418,Place of Worship,place of worship,church; place_of_worship; point_of_interest; establishment,OPERATIONAL,0,0,NA
ChIJAQEc5YEPsocRQVuKALiMNn4,Ruby's Produce and Garden,35.4928617,-97.6545395,Park,garden,point_of_interest; store; establishment,OPERATIONAL,4.5,89,NA
ChIJAQGet9kLsocRaYcCMRWGAp0,Wild Horse Park,35.4022213,-97.7289461,Park,park,park; tourist_attraction; point_of_interest; establishment,OPERATIONAL,4.6,1216,NA
ChIJAQGuqyEFsocRAMPIHnK2nzA,Bethany Park,35.527292,-97.63378639999999,Park,park,park; point_of_interest; establishment,OPERATIONAL,4.3,3,NA
ChIJaQSDVaAdsocR8KwNM_j5_cc,FENG CHA - Edmond,35.6231709,-97.5292509,Social Business,cafe,cafe; food; point_of_interest; establishment,OPERATIONAL,4.8,110,NA
ChIJaR89Go4RsocRZe_DM9kcHsM,Cathedral of Deliverance,35.4253843,-97.5838514,Place of Worship,place of worship,church; place_of_worship; point_of_interest; establishment,OPERATIONAL,4.5,4,NA
ChIJARU7VzIbsocRRHxiBidzLbU,Scooter's Coffee,35.5659609,-97.56678199999999,Social Business,cafe,cafe; food; point_of_interest; store; establishment,OPERATIONAL,4,5,NA
ChIJaSX8luYdsocRa1SHytqXuKw,New Life UPC,35.6626137,-97.53108499999999,Place of Worship,place of worship,church; place_of_worship; point_of_interest; establishment,OPERATIONAL,4.8,12,NA
ChIJAT_mvQgUsocRTFD4javCmF0,Harbor of Praise Church,35.4067629,-97.5176142,Place of Worship,place of worship,church; place_of_worship; point_of_interest; establishment,OPERATIONAL,3.5,2,NA
ChIJaUCOVzcXsocRzrgPINhBnRw,Campbell Art Park,35.4807296,-97.5137043,Park,park,park; point_of_interest; establishment,OPERATIONAL,4.1,50,NA
ChIJAV8MLBwTsocRt5G3pfPtfPM,Church of God of Prophesy,35.3573255,-97.5647999,Place of Worship,place of worship,church; place_of_worship; point_of_interest; establishment,OPERATIONAL,0,0,NA
ChIJaWcwD_ATsocRxZu5I3PXlSs,South Douglas Church of God,35.4070057,-97.53476049999999,Place of Worship,place of worship,church; place_of_worship; point_of_interest; establishment,OPERATIONAL,5,1,NA
ChIJAwEPqzxrsocRA31z6HWLXh0,Tropical Smoothie Cafe,35.6103637,-97.5736403,Social Business,cafe,restaurant; food; point_of_interest; establishment,OPERATIONAL,4.3,292,NA
ChIJAWF_ENgHsocR5Xb5e4sUr6g,Christ's Church of Yukon,35.4927804,-97.75344319999999,Place of Worship,place of worship,church; place_of_worship; point_of_interest; establishment,OPERATIONAL,4.8,30,NA
ChIJaWJ0sM0HsocRRmWyiGcsatc,Network Ministries Inc,35.508998,-97.73212199999999,Place of Worship,place of worship,church; place_of_worship; point_of_interest; establishment,OPERATIONAL,0,0,NA
ChIJaWJQbGIRsocRYdx5YmzIjSI,Harlow Park,35.4896421,-97.6074141,Park,park,park; point_of_interest; establishment,OPERATIONAL,4,41,NA
ChIJAWmS0UsIsocRdhweauKtAdk,Stable Rock Baptist Church,35.4527287,-97.76085479999999,Place of Worship,place of worship,church; place_of_worship; point_of_interest; establishment,OPERATIONAL,4.8,6,NA
ChIJAWtMnZwbsocRmohiGe3C79g,North Rotary Park,35.5286,-97.59064099999999,Park,park,park; point_of_interest; establishment,OPERATIONAL,4.7,20,NA
ChIJAWubR-gEsocRbDpLYT0gAFg,Slick Willies Family Pool Hall,35.555521,-97.634505,Community Space,city hall,point_of_interest; establishment,OPERATIONAL,4.2,592,NA
ChIJAwWNGmoYsocRlkQjOoodWmQ,Braum's Ice Cream & Dairy Store,35.5363297,-97.458045,Social Business,cafe,grocery_or_supermarket; restaurant; food; point_of_interest; store; establishment,OPERATIONAL,4.2,1709,NA
ChIJAX-ABQMXsocRV0AIcfTunLg,Creston Hills Park,35.48775200000001,-97.4713135,Park,park,park; point_of_interest; establishment,OPERATIONAL,4,11,NA
ChIJaXKZEKM9socRbOnXHWXP1kY,Midwest City Church of Christ,35.4373709,-97.3527539,Place of Worship,place of worship,church; place_of_worship; point_of_interest; establishment,OPERATIONAL,4.5,2,NA
ChIJaXOtKCQXsocRXlmxPnLWL_E,Deep Deuce Dog Park,35.469166,-97.5105482,Park,park,park; point_of_interest; establishment,OPERATIONAL,4.3,24,NA
ChIJAXRk620XsocRdPIEVCR1Jr0,Redeemed Missionary Baptist Church,35.4901892,-97.4931266,Place of Worship,place of worship,church; place_of_worship; point_of_interest; establishment,OPERATIONAL,4,9,NA
ChIJAxYCY8gXsocRQZSYz6ET5Dw,Hathaway Park,35.4261877,-97.49923659999999,Park,park,park; point_of_interest; establishment,OPERATIONAL,3.8,12,NA
ChIJAy3A9rQdsocR7N-s_XqfmEs,Sonic Drive-In,35.6375612,-97.5500034,Social Business,cafe,restaurant; food; point_of_interest; store; establishment,OPERATIONAL,4.1,581,NA
ChIJAY82hBMisocRXZf2MeLRZz8,Church of Christ at Oakdale,35.5798495,-97.4242345,Place of Worship,place of worship,church; place_of_worship; point_of_interest; establishment,OPERATIONAL,4.7,7,NA
ChIJay9LFwoQsocRmVNhFPAJtwo,Church of Pentecost,35.5012469,-97.59338629999999,Place of Worship,place of worship,church; place_of_worship; point_of_interest; establishment,OPERATIONAL,5,9,NA
ChIJAyp6LncUsocRQwNe7mo1xXg,Life.Church South Oklahoma City,35.389209,-97.51973509999999,Place of Worship,place of worship,church; place_of_worship; point_of_interest; establishment,OPERATIONAL,4.8,256,NA
ChIJAyURnFgXsocR3xCmZEZcmUg,Glen Ellyn Park,35.4925191,-97.4916947,Park,park,park; point_of_interest; establishment,OPERATIONAL,2.4,5,NA
ChIJAYUTpvcTsocRfi1_WaVnHio,El Rey Taqueria Family Restaurant,35.405887,-97.5271549,Social Business,cafe,restaurant; food; point_of_interest; establishment,OPERATIONAL,4.4,1036,NA
ChIJAz8qssUPsocRlyxwirROkz0,The Golden Burrito,35.4579978,-97.6556914,Social Business,cafe,restaurant; food; point_of_interest; establishment,OPERATIONAL,5,2,NA
ChIJAZL-phUasocRkuiu5fX7xNI,Warrens Salon At Penn Square Mall (Lower Level),35.5247293,-97.5436915,Park,square,hair_care; shopping_mall; point_of_interest; establishment,CLOSED_TEMPORARILY,4.2,41,TRUE
ChIJAZwWOdMRsocRbCMRuaYk0wY,Royal Cup Inc,35.45656779999999,-97.6043905,Social Business,cafe,cafe; lodging; storage; food; point_of_interest; establishment,OPERATIONAL,0,0,NA
ChIJazxoWuQPsocRnFhYyEbc888,Square Stations,35.4863116,-97.61871339999999,Park,square,gas_station; convenience_store; food; point_of_interest; store; establishment,OPERATIONAL,2,5,NA
ChIJb_MzxmIesocRmaIAOcfTSh4,McDonald's,35.6390439,-97.5131467,Social Business,cafe,cafe; restaurant; food; point_of_interest; store; establishment,OPERATIONAL,3.4,855,NA
ChIJb-hsZ_EasocR0hVGi4WLQqc,Starbucks,35.530587,-97.574868,Social Business,cafe,cafe; restaurant; food; point_of_interest; store; establishment,OPERATIONAL,4.1,1042,NA
ChIJB-Ra-qobsocRWGP_9BePpk8,Under The Sun Garden Center,35.549282,-97.56590969999999,Park,garden,point_of_interest; store; establishment,OPERATIONAL,5,1,NA
ChIJB08NtyH2sYcRxL6iTupqXCY,Acts 2 United Methodist Church,35.6802923,-97.5474888,Place of Worship,place of worship,church; place_of_worship; point_of_interest; establishment,OPERATIONAL,4.6,28,NA
ChIJb0mAkHITsocRCNenD9HLSvY,Fountain of Hope Family Services,35.364738,-97.54386249999999,Park,fountain,health; point_of_interest; establishment,OPERATIONAL,0,0,NA
ChIJB0UurTsPsocRJsqtdHJeweg,Oklahoma Coffee Roasters,35.4627927,-97.64925869999999,Social Business,cafe,cafe; food; point_of_interest; store; establishment,OPERATIONAL,3.7,32,NA
ChIJB15cCZ4FsocRJerEvrejcSo,India Cafe,35.514392,-97.6557961,Social Business,cafe,food; point_of_interest; establishment,OPERATIONAL,5,1,NA
ChIJb1Iv0AITsocRWh6Avmo8lKk,Starbucks,35.362352,-97.565857,Social Business,cafe,cafe; restaurant; food; point_of_interest; store; establishment,OPERATIONAL,4.1,611,NA
ChIJB1mwCCMGsocRuTQI0zJ2FKA,Sunrise Park,35.5027103,-97.723,Park,park,park; tourist_attraction; point_of_interest; establishment,OPERATIONAL,4.3,291,NA
ChIJb1oDNCYasocRw56sSkQ8Jpw,Columbus Square,35.5375644,-97.52792409999999,Park,square,real_estate_agency; point_of_interest; establishment,OPERATIONAL,5,2,NA
ChIJb2V7vUMFsocRvv02Brl0RUw,R. T. Williams Library - SNU,35.5133484,-97.62946900000001,Community Space,library,university; point_of_interest; establishment,OPERATIONAL,4.5,2,NA
ChIJB3_2MLkbsocRUa113MEj7gk,1492 New World Latin Cuisine,35.56388099999999,-97.54983999999999,Park,square,restaurant; food; point_of_interest; establishment,OPERATIONAL,4.4,230,NA
ChIJB34DCNMPsocRV6awO01pZYs,Jack in the Box,35.4615449,-97.6182635,Social Business,cafe,restaurant; food; point_of_interest; establishment,OPERATIONAL,3.9,1834,NA
ChIJB3KnBhIXsocRdHq1Ny40xSg,Stonewall Parking Garage,35.4812431,-97.4925749,Park,park,park; point_of_interest; establishment,OPERATIONAL,4.2,34,NA
ChIJB3kSCp4EsocR1FUF9k9YEjo,Putnam City Baptist Church,35.585078,-97.64018999999999,Place of Worship,place of worship,church; place_of_worship; point_of_interest; establishment,OPERATIONAL,4.8,52,NA
ChIJB424MMISsocRjyDU0sHc5Os,Eagle Heights Church,35.3457322,-97.5843426,Place of Worship,place of worship,church; place_of_worship; point_of_interest; establishment,OPERATIONAL,4.7,30,NA
ChIJB4P2bT4XsocRZeic8QRj2ns,Scissortail Park Dog Park,35.4585395,-97.5188913,Park,park,park; point_of_interest; establishment,OPERATIONAL,4.7,501,NA
ChIJb5cc4goFsocRjGs0i19WSEY,Indian Pentecostal Church OKC,35.4997218,-97.6649206,Place of Worship,place of worship,church; place_of_worship; point_of_interest; establishment,OPERATIONAL,0,0,NA
ChIJB5L-f0AXsocR3cWDebp0bsA,William Freemont Harn Park,35.485472,-97.5057698,Park,park,park; point_of_interest; establishment,OPERATIONAL,4.6,19,NA
ChIJb6uaPDQ0socRDcwbIjPcLWE,Newalla Church of Christ,35.4022966,-97.16202539999999,Place of Worship,place of worship,church; place_of_worship; point_of_interest; establishment,OPERATIONAL,4.9,8,NA
ChIJB7AvA_g9socRNRZh6o_ZE9E,McDonald's,35.434798,-97.4368492,Social Business,cafe,cafe; restaurant; food; point_of_interest; store; establishment,OPERATIONAL,3.2,2340,NA
ChIJb8nJQDgfsocRNspdAzv0hd8,Starbucks,35.609533,-97.46141800000001,Social Business,cafe,cafe; restaurant; food; point_of_interest; store; establishment,OPERATIONAL,4.4,325,NA
ChIJb9SD0_YTsocRnHFw08j40uE,Okie's Cafe,35.4040812,-97.5295696,Social Business,cafe,restaurant; food; point_of_interest; establishment,OPERATIONAL,3.9,8,NA
ChIJbaa-YZAWsocRhuP806MqQuE,Mount Vernon Holiness Church,35.4327987,-97.4949003,Place of Worship,place of worship,church; place_of_worship; point_of_interest; establishment,OPERATIONAL,4.2,9,NA
ChIJBc55TggTsocRvR3XIkQ6CEc,Theory Coffeehouse & Juicery,35.3636391,-97.5510109,Social Business,cafe,cafe; food; point_of_interest; store; establishment,OPERATIONAL,4.7,163,NA
ChIJBdE3VUxrsocR8uSpc7Z6mPU,Riverlife Church,35.329689,-97.51115399999999,Place of Worship,place of worship,church; place_of_worship; point_of_interest; establishment,OPERATIONAL,4.9,13,NA
ChIJberE0-oXsocRnsvaz2o1T6M,Greater Sapp Institutional Church,35.490616,-97.4594821,Place of Worship,place of worship,church; place_of_worship; point_of_interest; establishment,OPERATIONAL,0,0,NA
ChIJbfGah7YWsocRjDNZ0IRBN7s,Metropolitan Library System - Capitol Hill Library,35.438228,-97.519678,Community Space,library,library; point_of_interest; establishment,OPERATIONAL,4.6,73,NA
ChIJBfZpq3UcsocR7WHHWgHxVFI,Camelot Square Wine & Spirits,35.5943466,-97.55024499999999,Park,square,liquor_store; food; point_of_interest; store; establishment,OPERATIONAL,4.4,401,NA
ChIJbQXUiDYQsocRszvcLolhU9c,Seasonal Living,35.465231,-97.592584,Park,fountain,furniture_store; home_goods_store; point_of_interest; store; establishment,OPERATIONAL,4.2,35,NA
ChIJbRCFKXIFsocRz5cHWdT2EtY,Calvary Chapel of Oklahoma City,35.5138738,-97.6470717,Place of Worship,place of worship,church; place_of_worship; point_of_interest; establishment,OPERATIONAL,4.6,19,NA
ChIJbRcUQsEWsocR1zKDBA97m6M,Greater Christ Temple Church,35.44637600000001,-97.5069797,Place of Worship,place of worship,church; place_of_worship; point_of_interest; establishment,OPERATIONAL,0,0,NA
ChIJBRp1xskPsocR_2sH_Cw1t0M,The Home Depot,35.4634233,-97.6319266,Park,fountain,hardware_store; furniture_store; home_goods_store; point_of_interest; store; establishment,OPERATIONAL,4.2,1793,NA
ChIJbRsPrJc9socRK1zhF0FhrlU,Sam's Club Cafe,35.4364468,-97.4152994,Social Business,cafe,cafe; meal_takeaway; restaurant; food; point_of_interest; establishment,OPERATIONAL,0,0,NA
ChIJbS6IiGEQsocRSflRFLwuP3Q,Twelfth and Drexel Church of Christ,35.4867255,-97.5700401,Place of Worship,place of worship,church; place_of_worship; point_of_interest; establishment,OPERATIONAL,0,0,NA
ChIJBS88aFMXsocR5Ia3eH8v4Ko,Picasso Cafe,35.4999537,-97.52347069999999,Social Business,cafe,restaurant; bar; food; point_of_interest; establishment,OPERATIONAL,4.5,1778,NA
ChIJBSchOCQcsocRX9mQ0ab6RI0,Heritage Presbyterian Church,35.617505800000004,-97.5304256,Place of Worship,place of worship,church; place_of_worship; point_of_interest; establishment,OPERATIONAL,4.8,18,NA
ChIJbTaEVy0XsocRcDueExjaQUc,Belle Books Boutique & More,35.492752,-97.48017879999999,Social Business,bookstore,book_store; point_of_interest; store; establishment,OPERATIONAL,4.9,9,NA
ChIJbUl_V34asocRs0fDidKGxCE,Dunkin',35.5069949,-97.56533499999999,Social Business,cafe,bakery; meal_takeaway; cafe; restaurant; food; point_of_interest; store; establishment,OPERATIONAL,4.2,626,NA
ChIJbVFc16IRsocRNBRGxkwz39Y,Southwest Cathedral Church,35.4398156,-97.57827619999999,Place of Worship,place of worship,church; place_of_worship; point_of_interest; establishment,OPERATIONAL,0,0,NA
ChIJBVvIWQkXsocR8l7QFOAmebk,Paradise Temple Pntcstl Church,35.4809186,-97.48736079999999,Place of Worship,place of worship,church; place_of_worship; point_of_interest; establishment,OPERATIONAL,2.3,3,NA
ChIJbw4YEE0XsocR0xWugt3hNFw,Paseo Apostolic Church,35.49340919999999,-97.5231024,Place of Worship,place of worship,church; place_of_worship; point_of_interest; establishment,OPERATIONAL,5,12,NA
ChIJbw8UyOwXsocRyGQq-KoxUKA,Church of the Living God,35.4945787,-97.45936669999999,Place of Worship,place of worship,church; place_of_worship; point_of_interest; establishment,OPERATIONAL,4.7,13,NA
ChIJBWiA2IEWsocROnUQu_ryFtc,Equipped Ministries,35.421393,-97.484973,Place of Worship,place of worship,church; place_of_worship; point_of_interest; establishment,OPERATIONAL,5,3,NA
ChIJbWn8r5A6socRG7vJTCj2qB0,Wendy's,35.4935931,-97.2767089,Social Business,cafe,restaurant; food; point_of_interest; establishment,OPERATIONAL,3.8,521,NA
ChIJbwnYBeoasocRZdusWFxs9rk,North Rotary Park Playground,35.5291061,-97.59041590000001,Park,park,point_of_interest; establishment,OPERATIONAL,4.5,23,NA
ChIJBwO2GjsfsocR2asN1owcapI,The Brew at Oklahoma Christian University,35.6118922,-97.46850909999999,Social Business,cafe,cafe; food; point_of_interest; store; establishment,OPERATIONAL,4.7,60,NA
ChIJBwsK5tEPsocReg76HSnGBqg,Walmart Garden Center,35.4635026,-97.6226054,Park,garden,furniture_store; home_goods_store; general_contractor; point_of_interest; store; establishment,OPERATIONAL,2,2,NA
ChIJbxjIEYIPsocRtxpEcyZBWwA,Sonic Drive-In,35.4917965,-97.6537725,Social Business,cafe,restaurant; food; point_of_interest; store; establishment,OPERATIONAL,3.4,813,NA
ChIJbxNjvpkasocRtTMrq2CRJck,McDonald's,35.5107713,-97.58413639999999,Social Business,cafe,cafe; restaurant; food; point_of_interest; store; establishment,OPERATIONAL,3.3,2051,NA
ChIJbxVN7NRssocR6A7OcjzZdtQ,Kingsview Free Will Baptist Church,35.3272464,-97.5647156,Place of Worship,place of worship,place_of_worship; point_of_interest; establishment,OPERATIONAL,4.5,6,NA
ChIJbXVuWiEGsocRTMK9pOW2XWs,Grace Church - Episcopal,35.5002746,-97.72368739999999,Place of Worship,place of worship,church; place_of_worship; point_of_interest; establishment,OPERATIONAL,4.8,20,NA
ChIJBXym58IZsocRPw63sE08aBA,Woodland Park,35.5200322,-97.5012368,Park,park,park; point_of_interest; establishment,OPERATIONAL,4.1,24,NA
ChIJby9xgOkXsocRDxe1LMISA_0,United Faith,35.4915045,-97.45433279999999,Place of Worship,place of worship,place_of_worship; point_of_interest; establishment,OPERATIONAL,5,2,NA
ChIJbYnzhXUZsocRQebYiPdH8jM,Christian Faith Missionary Church,35.5506633,-97.5025714,Place of Worship,place of worship,church; place_of_worship; point_of_interest; establishment,OPERATIONAL,5,2,NA
ChIJbYV1W9cbsocRL68VGR6e5_4,Apostolic Assembly,35.5598207,-97.529291,Place of Worship,place of worship,church; place_of_worship; point_of_interest; establishment,OPERATIONAL,5,3,NA
ChIJByvYk9ZqsocRM8d_s6yisc8,OKC Church,35.4827048,-97.5704059,Place of Worship,place of worship,church; place_of_worship; point_of_interest; establishment,OPERATIONAL,5,15,NA
ChIJbYx3U0ERsocRTOh2F2d5_Bs,Life Of Christ Ministry,35.4346209,-97.54113480000001,Place of Worship,place of worship,church; place_of_worship; point_of_interest; establishment,OPERATIONAL,5,2,NA
ChIJBZ7-v8ITsocRhvYkQL4CK5E,McDonald's,35.4051071,-97.547478,Social Business,cafe,cafe; restaurant; food; point_of_interest; store; establishment,OPERATIONAL,3.5,2158,NA
ChIJBzrhCdQbsocRrG7txQOl--g,Tinsley Park,35.5384891,-97.573692,Park,park,park; point_of_interest; establishment,OPERATIONAL,4.6,16,NA
ChIJBZvwsKcYsocRqsHFLJknos0,Saddlerock Cafe,35.5856888,-97.4402939,Social Business,cafe,restaurant; food; point_of_interest; establishment,OPERATIONAL,2.9,15,NA
ChIJC_IHUm0TsocRyr2RyyYJvCo,Panera Bread,35.3628078,-97.5456237,Social Business,cafe,cafe; bakery; meal_takeaway; restaurant; food; point_of_interest; store; establishment,OPERATIONAL,4.2,1018,NA
ChIJC_VFengTsocRWs9n1AB2LfM,Fisher Square,35.374386199999996,-97.53386309999999,Park,square,neighborhood; political,NA,NA,NA,NA
ChIJc-fGFxEesocR85_cd-5DYt4,Ooo Cha Edmond,35.666569,-97.5097918,Social Business,cafe,cafe; food; point_of_interest; establishment,OPERATIONAL,4.8,120,NA
ChIJc-G9dGUJsocRC7bBxr4iSAo,Snack Attack,35.4727007,-97.7252748,Social Business,cafe,food; point_of_interest; store; establishment,OPERATIONAL,4.5,438,NA
ChIJc-yS1-gIsocRL7zbo6XAAkU,Braum's Ice Cream & Dairy Store,35.465642,-97.725545,Social Business,cafe,grocery_or_supermarket; restaurant; food; point_of_interest; store; establishment,OPERATIONAL,4,1043,NA
ChIJc0e3re09socRNAIujSJtMN0,Ted's Café Escondido,35.44361,-97.42469,Social Business,cafe,restaurant; food; point_of_interest; establishment,OPERATIONAL,4.3,3056,NA
ChIJC1u1rvYLsocRCHRSnTz8J-Y,The Bridge Church,35.3913881,-97.74777329999999,Place of Worship,place of worship,church; place_of_worship; point_of_interest; establishment,OPERATIONAL,4.6,120,NA
ChIJC2fluLEQsocRDk9LTw7D56Y,Jeff's Country Cafe,35.5044834,-97.5347723,Social Business,cafe,cafe; restaurant; food; point_of_interest; establishment,OPERATIONAL,4.2,1473,NA
ChIJc2JQ2esHsocRkLt3fGIVMPE,Android Army,35.5049817,-97.7200726,Community Space,community center,point_of_interest; establishment,OPERATIONAL,0,0,NA
ChIJC2nIV6UWsocRl0yZkFZ0Akw,Oliver Park,35.4325728,-97.513218,Park,park,park; point_of_interest; establishment,OPERATIONAL,4,141,NA
ChIJc2uPChcRsocRTIIL-EdT3Q4,Cordero de Dios Catholic Bookstore,35.4209763,-97.5350806,Social Business,bookstore,book_store; home_goods_store; point_of_interest; store; establishment,OPERATIONAL,5,11,NA
ChIJc39DIWUUsocRqkRm4aPOwE8,Springfield Church of God,35.3845066,-97.5128153,Place of Worship,place of worship,church; place_of_worship; point_of_interest; establishment,OPERATIONAL,0,0,NA
ChIJC45EVuoZsocRGiaOupozQfk,Central Park I,35.5267801,-97.5050124,Park,park,park; point_of_interest; establishment,OPERATIONAL,4.5,2,NA
ChIJC4i5U40PsocRiQHSPmYShxg,Garrison Park,35.4886831,-97.63345199999999,Park,park,park; tourist_attraction; point_of_interest; establishment,OPERATIONAL,4,137,NA
ChIJc4sSbVQ7socRRQ7PGhh-nac,Glory Bound Church Ministries,35.5130795,-97.3470033,Place of Worship,place of worship,church; place_of_worship; point_of_interest; establishment,OPERATIONAL,4.7,22,NA
ChIJC5aBsU8TsocRRfCgWlHVAyI,Casa de Darwin,35.4113334,-97.5319195,Social Business,cafe,cafe; food; point_of_interest; establishment,OPERATIONAL,0,0,NA
ChIJc5AdhPQLsocRc9BqpnYQ8Ys,Lowe's Home Improvement,35.3889326,-97.70568200000001,Park,fountain,hardware_store; furniture_store; home_goods_store; point_of_interest; store; establishment,OPERATIONAL,4.2,1229,NA
ChIJc6daYtcbsocRGbBlnhmLADQ,Prevailing Church,35.560147,-97.528317,Place of Worship,place of worship,church; place_of_worship; point_of_interest; establishment,OPERATIONAL,4.9,14,NA
ChIJC7vOuCUFsocR-RBZ4Rv4v6g,The Heal 365 / 365 Boba & Eatery,35.583001,-97.63588449999999,Social Business,cafe,pharmacy; cafe; food; health; point_of_interest; store; establishment,OPERATIONAL,4.6,11,NA
ChIJc7xcevELsocRPTQy7AIH_Xw,Wendy's,35.3921757,-97.7063245,Social Business,cafe,restaurant; food; point_of_interest; establishment,OPERATIONAL,3.6,769,NA
ChIJC84hxxUUsocRkKHHSqhLcZ4,Friends Church-Evangelical,35.402381,-97.50438249999999,Place of Worship,place of worship,church; place_of_worship; point_of_interest; establishment,OPERATIONAL,4.6,5,NA
ChIJC8ME68obsocRPqKK46TvWyM,Haggard Park,35.5499127,-97.54490299999999,Park,park,park; point_of_interest; establishment,OPERATIONAL,4.3,15,NA
ChIJC9vgMEIRsocR11A-wTatQf8,Inner City Church of God,35.4331162,-97.54420549999999,Place of Worship,place of worship,church; place_of_worship; point_of_interest; establishment,OPERATIONAL,5,1,NA
ChIJCa2yiMU9socRCdDjOvAsx2g,Schlotzsky's,35.4398983,-97.40570400000001,Social Business,cafe,restaurant; food; point_of_interest; establishment,OPERATIONAL,4.2,972,NA
ChIJCaMqDj4WsocR1HedEtwzeHY,Gospel Mission Baptist Church,35.4458344,-97.45503079999999,Place of Worship,place of worship,church; place_of_worship; point_of_interest; establishment,OPERATIONAL,0,0,NA
ChIJcaoSDW4PsocR6XH-QHC9qS8,Workforce Community Hope Center,35.4795628,-97.6391479,Community Space,community center,point_of_interest; establishment,OPERATIONAL,0,0,NA
ChIJCb-EWMILsocRF045w1UuZEU,One-52 Bar & Grill,35.3928464,-97.7218757,Social Business,cafe,bar; restaurant; food; point_of_interest; establishment,OPERATIONAL,4.3,139,NA
ChIJcbh4HtI9socR3cJkYgryMCs,Charles Johnson Park,35.4364096,-97.4002027,Park,park,park; point_of_interest; establishment,OPERATIONAL,4.4,71,NA
ChIJCcC-X4wEsocRLnsr4nVqGAA,Zion Lutheran Church,35.5665285,-97.6481622,Place of Worship,place of worship,church; place_of_worship; point_of_interest; establishment,OPERATIONAL,4.1,7,NA
ChIJccFEftIEsocRg1guvwRv43A,Lakeshore Estates Park,35.554643,-97.6142553,Park,park,park; point_of_interest; establishment,OPERATIONAL,4.1,50,NA
ChIJccK6gNobsocR6h6l6y3HkxU,Mission OKC Kitchen,35.5540884,-97.5282878,Social Business,cafe,cafe; food; point_of_interest; establishment,OPERATIONAL,5,2,NA
ChIJccoXlKIPsocR_lHmdUJs4bY,Lytle Park,35.4756639,-97.6456,Park,park,park; point_of_interest; establishment,OPERATIONAL,3.5,66,NA
ChIJccR6ZsoHsocRXlcpDlIbnAg,Bledsoe Park,35.51144860000001,-97.74319799999999,Park,park,park; tourist_attraction; point_of_interest; establishment,OPERATIONAL,4,59,NA
ChIJcd3RJkIQsocRa9fOTbF7CAA,Smith Farm and Garden,35.4790538,-97.5847299,Park,garden,point_of_interest; store; establishment,OPERATIONAL,4.4,140,NA
ChIJCddzKUEXsocRgS20CWKb8_Y,Ok Library For the Blind,35.4880028,-97.50582639999999,Community Space,library,library; point_of_interest; establishment,OPERATIONAL,4.8,4,NA
ChIJcdgkKGgRsocRmFhH0myz5Do,Penn South Church of Christ,35.3763415,-97.5564189,Place of Worship,place of worship,church; place_of_worship; point_of_interest; establishment,OPERATIONAL,5,12,NA
