place_id,name,lat,lng,type,term,categories,business_status,rating,user_ratings_total,permanently_closed
ChIJ_____0xV2YAR1RTbdmD_mWs,Bayside Community Center,32.7832813,-117.1725667,Community Space,community center,point_of_interest; establishment,OPERATIONAL,4.2,18,NA
ChIJ_____1JQ2YAR-dpCHQ4n1yM,Skyline Hills Library,32.697092,-117.0273831,Community Space,library,library; point_of_interest; establishment,OPERATIONAL,4.4,52,NA
ChIJ_____65U2YARIKaneinGCoE,Koby's Garden Alchemy,32.7269669,-117.1646689,Park,garden,general_contractor; point_of_interest; establishment,OPERATIONAL,5,1,NA
ChIJ____iw8A3IAReY0F-fakXoU,East Clairemont Athletic Area,32.8038633,-117.1834562,Park,park,park; point_of_interest; establishment,OPERATIONAL,4.4,92,NA
ChIJ___PRe4G3IARUUkj-AGoot4,Zenobia Fragments,32.8938841,-117.2360709,Community Space,library,library; point_of_interest; establishment,CLOSED_TEMPORARILY,0,0,TRUE
ChIJ___v5NIO3IARW9kRgg3Kis8,Grit and Grace,32.9897272,-117.2696783,Park,garden,furniture_store; home_goods_store; park; general_contractor; point_of_interest; store; establishment,OPERATIONAL,5,1,NA
ChIJ__-LDCFS2YARv-wEW75-ckw,SLR CHURCH,32.6730559,-117.083305,Place of Worship,place of worship,church; place_of_worship; point_of_interest; establishment,OPERATIONAL,0,0,NA
ChIJ__-PSShM2YARSXuoKAn2-qE,Kozitas,32.5996624,-117.0810171,Park,garden,point_of_interest; store; establishment,OPERATIONAL,0,0,NA
ChIJ__-vMiJX2YARcdeVvTZhd6Y,La Mesa & University,32.7643049,-117.0265053,Social Business,cafe,cafe; food; point_of_interest; store; establishment,OPERATIONAL,5,1,NA
ChIJ__8_K-UD3IARZMKGXNhTLIo,Garden By The C,32.8442134,-117.2767049,Park,garden,point_of_interest; establishment,OPERATIONAL,0,0,NA
ChIJ__87Qv2q3oARXGcKgq-xkos,Bookstar,32.7459923,-117.2101719,Social Business,bookstore,book_store; point_of_interest; store; establishment,OPERATIONAL,3.7,6,NA
ChIJ__8PdzdS2YARMVkCd8_rMnI,"Community Center for Excellence, Inc.",32.677651,-117.099873,Community Space,community center,point_of_interest; establishment,CLOSED_TEMPORARILY,0,0,TRUE
ChIJ__8zj7MI3IARWzGpeQ-L_II,Friends of Del Mar Parks,32.9564499,-117.2638226,Park,park,park; point_of_interest; establishment,OPERATIONAL,0,0,NA
ChIJ__9vbilM2YARZhzm4cFWTHI,Avenzo Coffee,32.6011946,-117.0832236,Social Business,cafe,cafe; food; point_of_interest; establishment,OPERATIONAL,5,1,NA
ChIJ__9vkC7624ARwQ7w7DNZyUE,Little Free Library,32.9504161,-117.0714554,Community Space,library,library; point_of_interest; establishment,OPERATIONAL,0,0,NA
ChIJ__bUvvBH2YARbdn-opOvzOY,The Furniture Square - Furniture Warehouse & Auctions,32.8911951,-117.1500799,Park,square,furniture_store; home_goods_store; point_of_interest; store; establishment,OPERATIONAL,5,6,NA
ChIJ__lcqwtT2YAR9TKtLtt5QMY,Memorial Skatepark,32.6981387,-117.1298535,Park,park,park; point_of_interest; establishment,OPERATIONAL,4.6,94,NA
ChIJ_-Zqw6Gq3oAR7ZZ-6XcxS2I,Western Hills Park,32.7863775,-117.1961368,Park,park,park; tourist_attraction; point_of_interest; establishment,OPERATIONAL,4.4,126,NA
ChIJ_0jCn5FV2YARaz7ihQTdtak,San Diego Gospel Hall,32.7851026,-117.0950202,Place of Worship,place of worship,church; place_of_worship; point_of_interest; establishment,OPERATIONAL,5,1,NA
ChIJ_1aCxZtU2YARLCfonaSb8Do,Naval Medical Center Library,32.7298096,-117.1455004,Community Space,library,library; point_of_interest; establishment,OPERATIONAL,0,0,NA
ChIJ_29ckd4A3IARHlPvlVo6thc,Starbucks,32.851664,-117.215673,Social Business,cafe,cafe; restaurant; food; point_of_interest; store; establishment,OPERATIONAL,4.3,195,NA
ChIJ_2F7k7pL2YARJyKcukStIOw,BlueLuna Cafe& Deli,32.5283886,-117.112848,Social Business,cafe,cafe; food; point_of_interest; store; establishment,OPERATIONAL,4.4,203,NA
ChIJ_2IrBNwI3IARzGm0yPk_RYg,McDonald's,32.9803622,-117.249595,Social Business,cafe,cafe; restaurant; food; point_of_interest; store; establishment,OPERATIONAL,3.9,1444,NA
ChIJ_2OrNe6r3oARJw1H0WQonx4,Surfrider Square Park,32.7708196,-117.252929,Park,square,point_of_interest; establishment,OPERATIONAL,5,2,NA
ChIJ_35XOPNG2YARjuqzAWjfF1o,Donovan's Cafe,32.5820258,-116.9364329,Social Business,cafe,meal_delivery; restaurant; food; point_of_interest; establishment,OPERATIONAL,4.7,10,NA
ChIJ_3abSScA3IARy-BukzT1w_k,Sojourners Christian Fellowship,32.7896123,-117.203143,Place of Worship,place of worship,church; place_of_worship; point_of_interest; establishment,OPERATIONAL,0,0,NA
ChIJ_3VhaVJU2YARPr6do5CQ-7c,Dos Palmas Cafe,32.7635222,-117.1159505,Social Business,cafe,cafe; bakery; restaurant; food; point_of_interest; store; establishment,OPERATIONAL,4.9,219,NA
ChIJ_4MpebWs3oARzY1LH4GGCzU,Spreckels Park,32.6906157,-117.1763446,Park,park,park; tourist_attraction; point_of_interest; establishment,OPERATIONAL,4.7,936,NA
ChIJ_4R6TBz324AREiENRuAAz_U,Yogurt Lounge 4S Ranch,33.0159829,-117.1105212,Social Business,cafe,food; point_of_interest; store; establishment,OPERATIONAL,4.6,47,NA
ChIJ_5gXlFf924ARuO95WTE9ibk,Starbucks,32.838279,-116.994941,Social Business,cafe,cafe; restaurant; food; point_of_interest; store; establishment,OPERATIONAL,4.1,555,NA
ChIJ_5qiLdMG3IARpC-p-BDvgTY,San Diego California Temple,32.8663899,-117.2287442,Place of Worship,place of worship,tourist_attraction; church; place_of_worship; point_of_interest; establishment,OPERATIONAL,4.8,1891,NA
ChIJ_6LOI5z324ARJLN23x1Dloc,Black Mountain Ranch Park,32.9877095,-117.1306702,Park,park,park; tourist_attraction; point_of_interest; establishment,OPERATIONAL,4.5,190,NA
ChIJ_6yLnnNU2YARKuMH_mG21hc,The Brown Building,32.7338448,-117.1060808,Community Space,community center,point_of_interest; establishment,OPERATIONAL,4.9,17,NA
ChIJ_84HZ9hX2YAR_w_nkt68TgU,Big Rock Park,32.83041840000001,-117.018256,Park,park,park; tourist_attraction; point_of_interest; establishment,OPERATIONAL,4.6,582,NA
ChIJ_9eTGSYB3IARfSzXLpXkmsU,Montrose Park,32.8669994,-117.2085095,Park,park,park; point_of_interest; establishment,OPERATIONAL,0,0,NA
ChIJ_a4vcU7524AR8TSGRT6inrU,The French Oven,32.9124628,-117.0794183,Social Business,cafe,bakery; food; point_of_interest; store; establishment,OPERATIONAL,4.7,273,NA
ChIJ_az8Dyn524ARXS2S9yfmkAY,Harbor of Life Ministries,32.8980942,-117.1227159,Place of Worship,place of worship,place_of_worship; point_of_interest; establishment,OPERATIONAL,5,5,NA
ChIJ_bCLXR1J2YARBjNqskp8fs4,San Diego Community Services Center,32.5473213,-117.032879,Community Space,library,point_of_interest; establishment,CLOSED_TEMPORARILY,4.3,7,TRUE
ChIJ_bCLXR1J2YARBjNqskp8fs4,San Diego Community Services Center,32.5473213,-117.032879,Community Space,community center,point_of_interest; establishment,CLOSED_TEMPORARILY,4.3,7,TRUE
ChIJ_bCLXR1J2YARBjNqskp8fs4,San Diego Community Services Center,32.5473213,-117.032879,Community Space,city hall,point_of_interest; establishment,CLOSED_TEMPORARILY,4.3,7,TRUE
ChIJ_bCLXR1J2YARUAXBoaJCsoo,San Ysidro Chamber of Commerce,32.547383,-117.0328416,Community Space,city hall,point_of_interest; establishment,OPERATIONAL,4.4,10,NA
ChIJ_bHBxg0I3IAREPnXM2qIGrg,Solana Ranch Park,32.966664,-117.1923821,Park,park,gym; health; point_of_interest; establishment,OPERATIONAL,4.7,35,NA
ChIJ_cK_IJJV2YARCjJQk92fHfs,Adams Community Park,32.7627604,-117.1178245,Park,park,park; point_of_interest; establishment,OPERATIONAL,5,1,NA
ChIJ_euJRQ5T2YARQURO6RF-Px0,Boba Bar and Desserts,32.676058,-117.0950708,Social Business,cafe,cafe; food; point_of_interest; establishment,OPERATIONAL,4.5,222,NA
ChIJ_f9Rq89J2YARW0CEvQ7WrHE,Buñuelos mi Tencha Deli Café,32.52896700000001,-117.0536064,Social Business,cafe,restaurant; food; point_of_interest; store; establishment,OPERATIONAL,4.9,16,NA
ChIJ_fhbU43_24AR0fa8sqaHtXE,Lindbergh Neighborhood Park,32.8188015,-117.1622478,Park,park,park; tourist_attraction; point_of_interest; establishment,OPERATIONAL,4.3,541,NA
ChIJ_fhk2qVJ2YAREjHPgQdVJ4g,Guitarras Cafe,32.5289996,-117.0533406,Social Business,cafe,cafe; food; point_of_interest; store; establishment,OPERATIONAL,4.7,3,NA
ChIJ_Q0RvoRX2YARIeeHy7sLTqY,Fletcher Hills Recreation Center & Pool,32.8002333,-116.9965303,Community Space,community center,point_of_interest; establishment,OPERATIONAL,4.5,61,NA
ChIJ_REzax5P2YARbSaufo7dLSs,Valle Lindo Park,32.6022926,-117.0310431,Park,park,park; point_of_interest; establishment,OPERATIONAL,4.3,129,NA
ChIJ_RosA7UI3IARKhGKisiv_ZY,eCeltic Books & Treasures,32.95921940000001,-117.2653863,Community Space,library,library; point_of_interest; establishment,OPERATIONAL,0,0,NA
ChIJ_RosA7UI3IARKhGKisiv_ZY,eCeltic Books & Treasures,32.95921940000001,-117.2653863,Social Business,bookstore,library; point_of_interest; establishment,OPERATIONAL,0,0,NA
ChIJ_SPstH1X2YARw03G9PCmlAw,SDSU Cannabis Garden,32.7718894,-117.0656124,Park,garden,park; point_of_interest; establishment,OPERATIONAL,0,0,NA
ChIJ_SwQ7QsH3IARO_5utWzbBiY,Tower 4,32.9326176,-117.2605602,Park,park,park; point_of_interest; establishment,OPERATIONAL,5,2,NA
ChIJ_Sy4Tb8B3IAR20cKycWAJ_w,Starbucks,32.802007,-117.238955,Social Business,cafe,cafe; food; point_of_interest; store; establishment,OPERATIONAL,3.9,48,NA
ChIJ_TbzCF5T2YARIY898oHNeW0,The Alice Archives,32.7121049,-117.1508341,Social Business,bookstore,book_store; point_of_interest; store; establishment,OPERATIONAL,0,0,NA
ChIJ_VFzWg9V2YARCUOC5Id03WM,Village Square,32.79354900000001,-117.097935,Park,square,shopping_mall; point_of_interest; establishment,OPERATIONAL,0,0,NA
ChIJ_VmibO4B3IARTouvyZx6gpY,Rum Jungle Cafe,32.7920948,-117.254592,Social Business,cafe,cafe; restaurant; food; point_of_interest; establishment,OPERATIONAL,4.4,144,NA
ChIJ_Wgw7u8H3IARSA7-dokGcA4,LuckyBolt Kitchen + Takeaway,32.9019643,-117.2254987,Social Business,cafe,restaurant; meal_delivery; bakery; cafe; food; point_of_interest; store; establishment,OPERATIONAL,4.5,24,NA
ChIJ_wmdMqr324AR5anyebWoLFI,Angeline Park,33.0097175,-117.1290949,Park,park,park; point_of_interest; establishment,OPERATIONAL,4.5,29,NA
ChIJ_wPDxI__24ARVwR7jRAvopI,Church,32.8275531,-117.1625828,Place of Worship,place of worship,church; place_of_worship; point_of_interest; establishment,OPERATIONAL,0,0,NA
ChIJ_X7RkVf924AR_-A3xj28vyc,Ding Tea Santee,32.838443,-116.9960725,Social Business,cafe,cafe; food; point_of_interest; establishment,OPERATIONAL,4.5,64,NA
ChIJ_XSWSNIA3IARUdBF0qgi3A8,University Town Square HOA,32.8664131,-117.2111053,Park,square,point_of_interest; establishment,OPERATIONAL,4.7,3,NA
ChIJ_xUutpRT2YARKzu4FYrmwD0,Mt Hope Community Garden,32.711227,-117.103466,Park,garden,park; point_of_interest; establishment,OPERATIONAL,4.7,28,NA
ChIJ_Y1dUL1V2YAR49i6k7r2Nro,San Diego City College Library,32.7175902,-117.1525306,Community Space,library,library; point_of_interest; establishment,OPERATIONAL,0,0,NA
ChIJ_Yjb_Z5W2YAR1aVYFqrlLKc,Redeeming Grace Christian Center,32.7552594,-117.0554135,Place of Worship,place of worship,church; place_of_worship; point_of_interest; establishment,OPERATIONAL,5,2,NA
ChIJ_YMQGDIH3IARRCpDysOhXpE,"Teeple Hall, LLP",32.87582200000001,-117.207136,Community Space,city hall,lawyer; accounting; finance; point_of_interest; establishment,OPERATIONAL,3,2,NA
ChIJ_YMQGDIH3IART81IJi4YmUE,Cargo Cafe - La Jolla Reserve,32.8779343,-117.2104743,Social Business,cafe,cafe; food; point_of_interest; establishment,OPERATIONAL,4.8,58,NA
ChIJ_YqFl6hU2YARN6mgc4nICTE,Office of the City Treasurer,32.71803380000001,-117.1624289,Community Space,city hall,local_government_office; point_of_interest; establishment,OPERATIONAL,3.8,12,NA
ChIJ_yRknQBT2YAR2fWX47BeuQM,mango mango fresh and healthy,32.6598902,-117.106313,Social Business,cafe,restaurant; food; point_of_interest; establishment,OPERATIONAL,4.3,156,NA
ChIJ_Z4dJwRJ2YARkUjJ3WwOjHQ,"Cafeteria ""Luna""",32.5389741,-117.0401805,Social Business,cafe,cafe; food; point_of_interest; store; establishment,OPERATIONAL,5,2,NA
ChIJ_ZtCYOIA3IARA9VGbdYKPVg,San Clemente trail parking lot,32.8396463,-117.2192005,Park,park,park; point_of_interest; establishment,CLOSED_TEMPORARILY,4.4,91,TRUE
ChIJ_zZvIZ1J2YARAtlMCtJSEDY,Starbucks,32.560333,-117.062911,Social Business,cafe,cafe; restaurant; food; point_of_interest; store; establishment,OPERATIONAL,4.4,314,NA
ChIJ-_5zARVV2YARK8ISBd4hHZg,Civita Park,32.7790075,-117.1468663,Park,park,tourist_attraction; park; point_of_interest; establishment,OPERATIONAL,4.7,1397,NA
ChIJ-_virP3924ARBk9cIlVBX2w,Mission Trails Clairemont Mesa Trailhead,32.8253834,-117.0765942,Park,park,park; point_of_interest; establishment,OPERATIONAL,4.8,198,NA
ChIJ--nsNEgA3IARzMqKL2VCscs,Church Tsidkenu,32.7758585,-117.1736924,Place of Worship,place of worship,church; place_of_worship; point_of_interest; establishment,OPERATIONAL,4.9,88,NA
ChIJ--PlUcgG3IAR2wSP62PkvF8,The Wind Garden,32.87111970000001,-117.2418492,Park,garden,park; point_of_interest; establishment,OPERATIONAL,4.4,5,NA
ChIJ-0lC_4BW2YARaUFb5CJ4puc,BCB Coffee,32.7741127,-117.0764541,Social Business,cafe,cafe; food; point_of_interest; store; establishment,OPERATIONAL,4.5,2,NA
ChIJ-0o6cVpP2YARNrnniLmvnv0,La Suergra,32.5943717,-117.0379865,Social Business,cafe,restaurant; food; point_of_interest; establishment,OPERATIONAL,0,0,NA
ChIJ-14_fjhV2YARXgc0_7Qu0pc,Friends Of The Mission Hills-Hillcrest/Knox Library bookstore,32.7496638,-117.1652148,Social Business,bookstore,book_store; point_of_interest; store; establishment,OPERATIONAL,0,0,NA
ChIJ-31cQmBQ2YARiNyeu78qzfk,Spring Valley County Park,32.7071323,-117.0069483,Park,park,park; point_of_interest; establishment,OPERATIONAL,4.1,460,NA
ChIJ-41XKdlR2YARp6jsiffiJwA,The Church of Jesus Christ of Latter-day Saints,32.6598468,-117.0497727,Place of Worship,place of worship,church; place_of_worship; point_of_interest; establishment,OPERATIONAL,4.9,26,NA
ChIJ-4h3y5ZO2YARoaoyC7rH4BU,San Diego Christian Fellowship,32.5960759,-117.0635475,Place of Worship,place of worship,church; place_of_worship; point_of_interest; establishment,OPERATIONAL,5,2,NA
ChIJ-5UvqJlW2YARZsVbVso_R_Q,The Living Room Coffeehouse,32.759952,-117.0704357,Social Business,cafe,cafe; restaurant; food; point_of_interest; store; establishment,OPERATIONAL,4.5,1142,NA
ChIJ-6-oXwXy24AR6C1du6y1FtI,San Diego Zoo Safari Park,33.0974458,-116.9957227,Park,park,zoo; tourist_attraction; park; point_of_interest; establishment,OPERATIONAL,4.7,20002,NA
ChIJ-7izcBf524AR6BkEf6_yB6c,Sharetea,32.916619,-117.114178,Social Business,cafe,cafe; food; point_of_interest; store; establishment,OPERATIONAL,4.4,340,NA
ChIJ-7qklOz424ARR4eJoM7ziqk,Broken Yolk Cafe,32.9121968,-117.1482063,Social Business,cafe,restaurant; food; point_of_interest; establishment,OPERATIONAL,4.3,810,NA
ChIJ-85jRdTw24ARuQXtty86V6Y,The Incredible Cafe,33.02351,-117.0760901,Social Business,cafe,restaurant; food; point_of_interest; establishment,OPERATIONAL,4.2,578,NA
ChIJ-87_hUWq3oARRzH7q7-POsQ,Dog Park,32.7528934,-117.2379747,Park,park,tourist_attraction; park; point_of_interest; establishment,OPERATIONAL,4.6,614,NA
ChIJ-8GASP_224AR-vg0BmmLjEQ,Starbucks,33.013126,-117.14735,Social Business,cafe,cafe; food; point_of_interest; establishment,OPERATIONAL,3.8,16,NA
ChIJ-8Geq2H424ARrUqdgE-fFAo,Smart Landscape,32.9400797,-117.0315527,Park,garden,general_contractor; point_of_interest; establishment,OPERATIONAL,5,3,NA
ChIJ-8m7r8D724ARuamrjTJn_Rk,Little Free Library,32.98493270000001,-117.0644527,Community Space,library,library; point_of_interest; establishment,OPERATIONAL,0,0,NA
ChIJ-8wCXeQB3IARB4BCTSJ8o6M,Better Buzz Coffee Mission Beach,32.78365,-117.252466,Social Business,cafe,cafe; food; point_of_interest; store; establishment,OPERATIONAL,4.5,696,NA
ChIJ-9AIVtwD3IARo9Z9qOnb-FE,La Jolla Community Center,32.8307093,-117.2759931,Community Space,community center,gym; health; point_of_interest; establishment,OPERATIONAL,4.4,18,NA
ChIJ-aDe2KRV2YARO7o5nTClbIo,Oliver Coffea,32.7485189,-117.148485,Social Business,cafe,cafe; food; point_of_interest; establishment,OPERATIONAL,4.4,79,NA
ChIJ-b93gTf324ARWB8J0oNiTyg,Victors Kafe,33.0050699,-117.0908549,Social Business,cafe,restaurant; food; point_of_interest; establishment,OPERATIONAL,4.6,256,NA
ChIJ-bNXrShM2YARWLBglXx376c,Life Christian Center,32.594145,-117.0859448,Place of Worship,place of worship,church; place_of_worship; point_of_interest; establishment,OPERATIONAL,4.6,9,NA
ChIJ-bQbYYGr3oARXimgO_4zWwk,Bayfront Recreational Area,32.7250743,-117.2245928,Park,park,park; point_of_interest; establishment,OPERATIONAL,0,0,NA
ChIJ-c26bc3w24ARa8j_Mj1jI_w,New York Bagels & Cafe,33.0148613,-117.0773647,Social Business,cafe,bakery; food; point_of_interest; store; establishment,OPERATIONAL,4.3,260,NA
ChIJ-dLNi_sD3IARrIYzCoin8bE,Café la Rue,32.8485243,-117.2734442,Social Business,cafe,cafe; restaurant; food; point_of_interest; establishment,CLOSED_TEMPORARILY,4.4,59,TRUE
ChIJ-drpZzT624ARMxyG15gNouA,Orange Garden,32.9505002,-117.0600302,Park,garden,point_of_interest; establishment,OPERATIONAL,4.4,5,NA
ChIJ-f61vIhO2YAR8q_yKluWFX4,KD`S Donuts,32.6070389,-117.0667708,Social Business,cafe,bakery; cafe; food; point_of_interest; store; establishment,OPERATIONAL,4.3,139,NA
ChIJ-fuJATJS2YARhBQH0oK5JTw,Granger Music Hallmark,32.6846208,-117.0910018,Community Space,city hall,store; point_of_interest; establishment,CLOSED_TEMPORARILY,0,0,TRUE
ChIJ-Qh2PmxR2YARiNv1z8oB420,Centro Cristiano Iinternacional Cedros del Sinai,32.710616,-117.0615081,Place of Worship,place of worship,church; place_of_worship; point_of_interest; establishment,OPERATIONAL,5,1,NA
ChIJ-QjM0A7-24ARm3KbjJZvA6s,VISION: A Center For Spiritual Living,32.7812672,-117.0907625,Place of Worship,place of worship,church; place_of_worship; point_of_interest; establishment,OPERATIONAL,4.9,18,NA
ChIJ-RH-ivwD3IARytA6pgbjWxo,Congregational Church of La Jolla,32.8479486,-117.2721552,Place of Worship,place of worship,church; place_of_worship; point_of_interest; establishment,OPERATIONAL,4.2,11,NA
ChIJ-Rhh0EtJ2YARQOQub206TxY,Victory Outreach,32.5660726,-117.0589569,Place of Worship,place of worship,church; place_of_worship; point_of_interest; establishment,OPERATIONAL,4.7,29,NA
ChIJ-RTq5fYH3IARYPsYHHd-N0Q,Carmel Valley Recreation Park restroom,32.94836950000001,-117.2327042,Park,park,park; point_of_interest; establishment,OPERATIONAL,1,1,NA
ChIJ-RvvElpT2YARVfRB8fzRFYQ,Ciné Café,32.7084377,-117.1606614,Social Business,cafe,grocery_or_supermarket; liquor_store; restaurant; food; point_of_interest; store; establishment,OPERATIONAL,4.5,145,NA
ChIJ-SRom9Or3oARpK5ug5iU5Z0,Marina Market and Café,32.7269856,-117.1981362,Social Business,cafe,cafe; food; point_of_interest; store; establishment,OPERATIONAL,3.5,4,NA
ChIJ-SYh2KVU2YARLuHH_nCnbAo,Stock Exchange Square (Ace Parking),32.7204263,-117.1595752,Park,square,parking; point_of_interest; establishment,OPERATIONAL,0,0,NA
ChIJ-Tv4xNNJ2YARR2d3nrpQ5lg,Cafe valladolid,32.53533,-117.010002,Social Business,cafe,restaurant; food; point_of_interest; establishment,OPERATIONAL,4.8,29,NA
ChIJ-TxpeL-q3oAREjkf4uswsYQ,La Paloma,32.770302,-117.1938652,Social Business,cafe,cafe; food; point_of_interest; establishment,OPERATIONAL,4.2,27,NA
ChIJ-Uby2xNJ2YAROoWdzqbopl4,Coral Gate Park,32.5451988,-117.0497132,Park,park,park; tourist_attraction; point_of_interest; establishment,OPERATIONAL,4.5,115,NA
ChIJ-Vi3YjFV2YARKIEpqnlx8Zo,Better Buzz Coffee Fashion Valley,32.7678121,-117.1677783,Social Business,cafe,cafe; food; point_of_interest; store; establishment,OPERATIONAL,4.3,358,NA
ChIJ-VwVescB3IARmt-8qKJcYiE,Bruegger's Bagels,32.80117260000001,-117.2357056,Social Business,cafe,bakery; cafe; restaurant; food; point_of_interest; store; establishment,OPERATIONAL,4.1,201,NA
ChIJ-wOq28v524AR-vHDtGbnDBU,Love Of Christ Fellowship Church,32.9002744,-117.1216036,Place of Worship,place of worship,church; place_of_worship; point_of_interest; establishment,OPERATIONAL,5,1,NA
ChIJ-xFOGedR2YARbMDoNcQfrjs,Sweetwater Heights Park,32.6616369,-117.0586291,Park,park,park; point_of_interest; establishment,OPERATIONAL,4.4,31,NA
ChIJ-yLxKvhI2YARkzC8-H_a-fc,El Deleite Cafe & Deli,32.5405678,-117.0206836,Social Business,cafe,cafe; food; point_of_interest; establishment,OPERATIONAL,0,0,NA
ChIJ-yOtHM7424ARyLoXiRGUDnY,San Diego Playgrounds LLC,32.892971,-117.138572,Park,park,park; point_of_interest; establishment,OPERATIONAL,4,1,NA
ChIJ-YVA_Nyq3oARQg_9w3xs5qU,Old Town Park,32.7571347,-117.1938527,Park,park,park; point_of_interest; establishment,OPERATIONAL,4.7,67,NA
ChIJ-zGcYQ1J2YAR1pknTft2Kks,Tijuana River County Open Space Preserve PARK & Walk-in Entrance,32.5448463,-117.0746519,Park,park,park; point_of_interest; establishment,OPERATIONAL,0,0,NA
ChIJ-Zh7nmpJ2YARK1BjafoRRLk,MAESTRO DAVID,32.533791,-117.0349462,Place of Worship,place of worship,place_of_worship; point_of_interest; establishment,OPERATIONAL,5,1,NA
ChIJ-zsTbgBH2YARhIbwfSohcmo,Vega Cafe,32.5558333,-116.9363889,Social Business,cafe,cafe; food; point_of_interest; establishment,OPERATIONAL,4.5,89,NA
ChIJ0_mkKBpV2YARDIAr2r9AytU,Broken Yolk Cafe,32.769207,-117.1440767,Social Business,cafe,restaurant; food; point_of_interest; establishment,OPERATIONAL,4.1,1197,NA
ChIJ00C3XeD924ARfXxmCezTyk0,Corte Playa Catalina Entrance - Mission Trails Park,32.8374059,-117.0769445,Park,park,park; point_of_interest; establishment,OPERATIONAL,4.6,22,NA
ChIJ00dQKlpI2YARMKgAbMXU4Fc,Fortanell coffee shop,32.5334039,-117.0178888,Social Business,cafe,cafe; food; point_of_interest; store; establishment,OPERATIONAL,4.8,62,NA
ChIJ02CmR_RU2YAR4XU_hdozuyM,Subterranean Coffee Boutique North Park,32.7466518,-117.1303074,Social Business,cafe,meal_takeaway; cafe; restaurant; food; point_of_interest; store; establishment,OPERATIONAL,4.5,534,NA
ChIJ05BeB2JJ2YARb0bthlHg4Uk,Patria Café,32.5326495,-117.0735723,Social Business,cafe,point_of_interest; establishment,OPERATIONAL,4.7,11,NA
ChIJ06-AtvYJ3IARygvFXaE9L84,"DIESEL, A Bookstore",32.9505328,-117.233173,Social Business,bookstore,book_store; point_of_interest; store; establishment,OPERATIONAL,4.8,26,NA
ChIJ06bMa7qr3oARhR-KU4Tze1c,Lucy Evans Lauren Memorial Garden,32.7188181,-117.2382271,Park,garden,park; point_of_interest; establishment,OPERATIONAL,4.7,3,NA
ChIJ06sMjk5U2YAR86ljtvBCcmU,Ward Canyon Neighborhood Park,32.7622823,-117.1105831,Park,park,park; tourist_attraction; point_of_interest; establishment,OPERATIONAL,4.4,704,NA
ChIJ07uq2y1V2YAR8a2T8eeb_2I,PRAYER FAITH TEMPLE CHURCH OF GOD IN CHRIST SAN DEIGO CA,32.715244,-117.1609307,Place of Worship,place of worship,church; place_of_worship; point_of_interest; establishment,OPERATIONAL,0,0,NA
ChIJ09jZACdS2YARQLIGwtgyPk4,Starbucks,32.678081,-117.0821,Social Business,cafe,cafe; restaurant; food; point_of_interest; store; establishment,OPERATIONAL,4.1,783,NA
ChIJ0bu15bf524ARYaaRWshI4Zk,Views West Neighborhood Park,32.9553391,-117.1158126,Park,park,park; tourist_attraction; point_of_interest; establishment,OPERATIONAL,4.6,197,NA
ChIJ0c61Stvw24ARiBd3wAUu3Kc,Rancho Bernardo Swim & Tennis Club,33.0198589,-117.0645116,Community Space,community center,point_of_interest; establishment,OPERATIONAL,4.6,135,NA
ChIJ0cfQeLxP2YARJCLJbY-_XPY,Fenton Pond,32.5888088,-117.0743796,Park,park,park; point_of_interest; establishment,OPERATIONAL,4.4,8,NA
ChIJ0cjmmsL_24ARj4KaEqNqpiA,Sjkaswern Inc,32.8202182,-117.1379876,Park,garden,point_of_interest; store; establishment,OPERATIONAL,0,0,NA
ChIJ0dnESvUA3IARrLQOdqIaISM,North Clairemont Recreation Center,32.8323975,-117.1974175,Community Space,community center,tourist_attraction; park; point_of_interest; establishment,OPERATIONAL,4.4,181,NA
ChIJ0enUQe0G3IARkylSAdbsgJs,Torrey Club Cafe,32.8928788,-117.2426411,Social Business,cafe,restaurant; food; point_of_interest; establishment,OPERATIONAL,4.4,10,NA
ChIJ0exohlr924ARBTd51iofr8E,Kaffee Meister - Santee Coffeehouse,32.844485,-116.997619,Social Business,cafe,cafe; food; point_of_interest; store; establishment,OPERATIONAL,4.6,456,NA
ChIJ0f0mFZNL2YARKwjlq4RlwW8,Maya's lawncare jardineria,32.52911890000001,-117.0839752,Park,garden,general_contractor; point_of_interest; establishment,OPERATIONAL,4,1,NA
ChIJ0fL079RU2YARDtzKb825br4,Meshuggah Shack,32.7507997,-117.1715903,Social Business,cafe,cafe; food; point_of_interest; store; establishment,OPERATIONAL,4.8,216,NA
ChIJ0QR18UsH3IARmNJFNx09c2E,Del Mar Trails Park,32.9427235,-117.2190175,Park,park,point_of_interest; establishment,OPERATIONAL,4.9,7,NA
ChIJ0Rj54MYB3IARrZ93bD3JQ-k,Church at Trivandrum,32.799197,-117.23485,Place of Worship,place of worship,church; place_of_worship; point_of_interest; establishment,OPERATIONAL,0,0,NA
ChIJ0SgCNcZU2YARkEQRsGl1-xs,Jimmy Carter's Mexican Cafe,32.7385694,-117.1605417,Social Business,cafe,cafe; restaurant; food; point_of_interest; establishment,OPERATIONAL,4.5,1086,NA
ChIJ0SL72-Kq3oARUApkC61UHaQ,Einstein Bros. Bagels,32.7478818,-117.2071266,Social Business,cafe,bakery; cafe; restaurant; food; point_of_interest; store; establishment,OPERATIONAL,4.1,220,NA
ChIJ0U0shRdU2YARfesBSsAJ-rU,Silverado Ballroom,32.7496817,-117.0918965,Community Space,city hall,point_of_interest; establishment,OPERATIONAL,4.4,23,NA
ChIJ0UWBXJmq3oARMASPy3dSUN8,Little Free Library # 35504,32.7824496,-117.202134,Community Space,library,library; point_of_interest; establishment,OPERATIONAL,4.5,2,NA
ChIJ0w9BmBdU2YARE_dvhlDEHU0,Dalat Cafe,32.7501533,-117.0923963,Social Business,cafe,restaurant; food; point_of_interest; establishment,OPERATIONAL,3.8,10,NA
ChIJ0wMRZfsD3IARGMmBQSgVLO8,Athenaeum Music & Arts Library,32.8469048,-117.2742767,Community Space,library,library; tourist_attraction; point_of_interest; establishment,OPERATIONAL,4.6,11,NA
ChIJ0woQ2ENM2YARNTnO15S0Yyw,Romantix,32.583613,-117.108924,Social Business,bookstore,movie_rental; book_store; point_of_interest; clothing_store; store; establishment,OPERATIONAL,4.3,26,NA
ChIJ0WTUjRdJ2YARly6BSaUvl5g,Iglecia san juan butista,32.532425,-117.03211,Place of Worship,place of worship,church; place_of_worship; point_of_interest; establishment,OPERATIONAL,0,0,NA
ChIJ0XDDgSdU2YARNJhSYj--bzk,Talmadge Traffic Circle,32.7628392,-117.0891005,Park,park,park; point_of_interest; establishment,OPERATIONAL,4.6,33,NA
ChIJ0Y97_pL_24ARns9hERjZYGk,Marine and Family Programs,32.8879721,-117.1331651,Community Space,community center,point_of_interest; establishment,OPERATIONAL,0,0,NA
ChIJ0YLFggkI3IAR4muXXsIhVh8,Panera Bread,32.9609975,-117.1904832,Social Business,cafe,cafe; bakery; meal_takeaway; restaurant; food; point_of_interest; store; establishment,OPERATIONAL,3.9,278,NA
ChIJ0YNbTq9L2YAR7fgsIboZzrU,TEMPLE SHALOM,32.5245285,-117.1202258,Place of Worship,place of worship,place_of_worship; point_of_interest; establishment,OPERATIONAL,0,0,NA
ChIJ0zjzO5lJ2YARyUS17CenmRQ,Iglesia Avemtista septimo Dia,32.5375218,-116.9858517,Place of Worship,place of worship,church; place_of_worship; point_of_interest; establishment,OPERATIONAL,0,0,NA
ChIJ1_gKtA2q3oARu7QnA0-ICAk,Bonita Cove,32.7708619,-117.2494626,Park,park,park; tourist_attraction; point_of_interest; establishment,OPERATIONAL,4.6,1243,NA
ChIJ1_ILQY5T2YARdSGdCzEZCTk,La Paz Mini Park,32.6996937,-117.0806432,Park,park,park; point_of_interest; establishment,OPERATIONAL,5,1,NA
ChIJ1_jiYkSr3oAREhsT2nbd4lQ,Shipwreck Reef Cafe,32.7657354,-117.2284894,Social Business,cafe,restaurant; food; point_of_interest; establishment,OPERATIONAL,3,14,NA
ChIJ1_q8aONT2YAR24fobFTqlrQ,McDonald's,32.720609,-117.084617,Social Business,cafe,cafe; restaurant; food; point_of_interest; store; establishment,OPERATIONAL,3.7,1835,NA
ChIJ10jcCwxT2YARAEkj1FvN-bM,Starbucks,32.696172,-117.133474,Social Business,cafe,cafe; restaurant; food; point_of_interest; store; establishment,OPERATIONAL,4.2,937,NA
ChIJ11C33xFM2YARJ2pHo1aSjPo,MVA Library,32.5732462,-117.095476,Community Space,library,library; point_of_interest; establishment,CLOSED_TEMPORARILY,0,0,TRUE
ChIJ11GegqdJ2YARKr_DlWgpdqo,Park Square,32.5313925,-117.0471272,Park,park,park; point_of_interest; establishment,CLOSED_TEMPORARILY,4.2,5,TRUE
ChIJ11GegqdJ2YARKr_DlWgpdqo,Park Square,32.5313925,-117.0471272,Park,square,park; point_of_interest; establishment,CLOSED_TEMPORARILY,4.2,5,TRUE
ChIJ11tn5NwI3IAR8UlIgpc26vQ,San Dieguito River Park,32.9780341,-117.2474932,Park,park,park; tourist_attraction; point_of_interest; establishment,OPERATIONAL,4.7,41,NA
ChIJ12CCZqBJ2YARcTRB6AazO4Q,Iglesia Cristo,32.529536,-117.0534907,Place of Worship,place of worship,church; place_of_worship; point_of_interest; establishment,OPERATIONAL,5,2,NA
ChIJ12nvgfZU2YAR866RMMVF6ps,Figaro Dessert Cafe,32.7482852,-117.1296864,Social Business,cafe,bakery; cafe; restaurant; food; point_of_interest; store; establishment,OPERATIONAL,4.5,662,NA
ChIJ12OyyOUD3IARE7SPJgfZl8o,Prince Chapel By the Sea,32.8400202,-117.2770351,Place of Worship,place of worship,church; place_of_worship; point_of_interest; establishment,OPERATIONAL,5,5,NA
ChIJ13_l7eMD3IAR0yH7YpEXiI0,Harry's Coffee Shop,32.8414093,-117.2725852,Social Business,cafe,cafe; restaurant; food; point_of_interest; store; establishment,OPERATIONAL,4.6,1197,NA
ChIJ145abohV2YARbnTj6hgB7SY,Horton Square,32.7153915,-117.1616548,Park,park,park; point_of_interest; establishment,OPERATIONAL,0,0,NA
ChIJ145abohV2YARbnTj6hgB7SY,Horton Square,32.7153915,-117.1616548,Park,square,park; point_of_interest; establishment,OPERATIONAL,0,0,NA
ChIJ14paaqdO2YAR21T_9xG1QUc,Sunnyslope Park,32.5807052,-117.078305,Park,park,park; point_of_interest; establishment,OPERATIONAL,4.3,61,NA
ChIJ14S2e9uq3oARUDwkTmVPY5M,Presidio Park,32.7581942,-117.1908458,Park,park,park; tourist_attraction; point_of_interest; establishment,OPERATIONAL,4.6,1376,NA
ChIJ15_6xP2r3oARnfhiG11uIKA,Cañon Pocket Park,32.7227712,-117.2345328,Park,park,park; point_of_interest; establishment,CLOSED_TEMPORARILY,0,0,TRUE
ChIJ15qE9MAB3IARo3qkCNJykfk,Caffe Veloce,32.7991194,-117.2408372,Social Business,cafe,cafe; food; point_of_interest; establishment,OPERATIONAL,4.4,15,NA
ChIJ15RJ5-_224ARy4lP8WDIeg0,Pioneer Park - Private Park,33.0295253,-117.114158,Park,park,park; tourist_attraction; point_of_interest; establishment,OPERATIONAL,4.3,171,NA
ChIJ16KdQlqq3oARzTbB9Lg-dyI,Famosa Slough,32.749063,-117.2287969,Park,park,tourist_attraction; park; point_of_interest; establishment,OPERATIONAL,4.5,115,NA
ChIJ16kEETf024ARpBUyO2NVfJY,Del Dios Community Park,33.0779741,-117.1161617,Park,park,park; point_of_interest; establishment,OPERATIONAL,4.7,118,NA
ChIJ16WL-4NJ2YAROa3ZJo8fFwA,Iglesia Remanente Tijuana,32.5342779,-117.0212859,Place of Worship,place of worship,church; place_of_worship; point_of_interest; establishment,OPERATIONAL,0,0,NA
ChIJ173XI1AB3IARifflGl9VdlU,Saltwater Culture,32.7829798,-117.2523059,Social Business,cafe,cafe; food; point_of_interest; store; establishment,OPERATIONAL,5,58,NA
ChIJ17uhNR5U2YARhU5s7SKEhQ8,Colina Del Sol Park,32.7514849,-117.0805115,Park,park,park; tourist_attraction; point_of_interest; establishment,OPERATIONAL,4.1,558,NA
ChIJ19EgsdFV2YARLgSkqeYHx5g,Balboa Hospital Courtyard,32.7278617,-117.1455831,Social Business,cafe,cafe; food; point_of_interest; establishment,OPERATIONAL,5,1,NA
ChIJ19mk-tFU2YARqQxrs16tWK8,Little Free Library #20744,32.7453392,-117.1670813,Community Space,library,library; point_of_interest; establishment,OPERATIONAL,5,3,NA
ChIJ1ajV5Uz_24ARpgBgZ5OuBI4,Miramar Village Square East,32.8811005,-117.1585114,Park,square,shopping_mall; point_of_interest; establishment,OPERATIONAL,4,27,NA
ChIJ1bSr_gDx24ARDHjipeFYzyw,San Dieguito River Park,33.0434905,-117.0418932,Park,park,park; tourist_attraction; point_of_interest; establishment,OPERATIONAL,4.4,25,NA
ChIJ1dDbPLtU2YARbdlUS3dvz7I,Marston Point,32.7267578,-117.1579085,Park,park,park; tourist_attraction; point_of_interest; establishment,OPERATIONAL,4.5,106,NA
ChIJ1dn_aVtQ2YARgR-naJvZQY0,Cloud 9 Worship Center,32.6979643,-117.0152941,Place of Worship,place of worship,church; place_of_worship; point_of_interest; establishment,OPERATIONAL,5,6,NA
ChIJ1eVw7VNT2YARV6-0zKVj51U,Embarcadero Marina Park,32.707911,-117.1694087,Park,park,park; point_of_interest; establishment,OPERATIONAL,5,1,NA
ChIJ1f3gEqOr3oARUFn9joChP0I,Northside Shack - Point Loma,32.7231504,-117.2300433,Social Business,cafe,meal_takeaway; cafe; restaurant; food; health; point_of_interest; store; establishment,OPERATIONAL,4.9,356,NA
ChIJ1S1TJin524ARYxwwF_NFnWY,JESUS IS LORD CHURCH - SAN DIEGO,32.683266,-117.073972,Place of Worship,place of worship,place_of_worship; point_of_interest; establishment,OPERATIONAL,5,1,NA
ChIJ1U-IOV1X2YARTW1mN_220N4,Crunch Fitness - University Square,32.7492156,-117.0698575,Park,square,gym; health; point_of_interest; establishment,OPERATIONAL,3.4,163,NA
ChIJ1UFpvEX324ARlwbRmmlR_jM,Pro Garden Lanscaping,32.9951233,-117.09294,Park,garden,general_contractor; point_of_interest; establishment,OPERATIONAL,0,0,NA
ChIJ1VhMvEKq3oARWBCTR8tklW8,The Dock House Deli,32.7597945,-117.2344585,Social Business,cafe,cafe; food; point_of_interest; establishment,OPERATIONAL,4.2,26,NA
ChIJ1VtvxoVW2YARkLfVGun9Ti4,Starbucks,32.771435,-117.06975,Social Business,cafe,cafe; food; point_of_interest; store; establishment,OPERATIONAL,4,138,NA
ChIJ1VWdkLD724AR7a-4nx-e55w,San Diego County Philatelic Library,32.940148,-117.047948,Community Space,library,library; point_of_interest; establishment,OPERATIONAL,5,2,NA
ChIJ1Vws_bBR2YARDuRJZl45dcE,Skyline Hills Community Park,32.7051415,-117.0253392,Park,park,park; point_of_interest; establishment,OPERATIONAL,4.5,89,NA
ChIJ1X1srbIB3IARhybmy9bDuuc,Bird Rock Waterfront,32.8079511,-117.266072,Park,park,park; point_of_interest; establishment,OPERATIONAL,4.8,50,NA
ChIJ1xBhFEdJ2YARYdKjf_pL6Oc,Jose Cafe,32.536177,-117.0228,Social Business,cafe,cafe; food; point_of_interest; store; establishment,OPERATIONAL,4.5,202,NA
ChIJ1XxEvNX524ARdrlZRnLLp7o,Enclave Café - Scripps Ranch,32.8985252,-117.1109407,Social Business,cafe,restaurant; food; point_of_interest; establishment,OPERATIONAL,4.7,24,NA
ChIJ1YJdSikH3IARwbEmoUR45sw,PJ Library San Diego,32.875664,-117.2149145,Place of Worship,place of worship,place_of_worship; point_of_interest; establishment,OPERATIONAL,0,0,NA
ChIJ1YJdSikH3IARwbEmoUR45sw,PJ Library San Diego,32.875664,-117.2149145,Community Space,library,place_of_worship; point_of_interest; establishment,OPERATIONAL,0,0,NA
ChIJ1ytVlI7524AR8mzjBsy8314,Tastea San Diego,32.9159221,-117.1220032,Social Business,cafe,restaurant; food; point_of_interest; establishment,OPERATIONAL,3.9,51,NA
ChIJ1YXYH7b424AR_-wjlVtcpe4,Square 1 Exp Office Equipment Services,32.8911951,-117.1500799,Park,square,point_of_interest; store; establishment,CLOSED_TEMPORARILY,0,0,TRUE
ChIJ1ZgXMD_524ARyNQh2mHUo4s,Scripps Miramar Ranch Library,32.9111489,-117.1050983,Community Space,library,library; point_of_interest; establishment,OPERATIONAL,4.3,56,NA
ChIJ2_0f-hFX2YARG2qlGwEJIpc,Starbucks,32.779543,-117.01515,Social Business,cafe,cafe; restaurant; food; point_of_interest; store; establishment,OPERATIONAL,4.4,270,NA
ChIJ2_5k6sRV2YARZ0GFrSpetC4,Little free library,32.7966315,-117.0848095,Community Space,library,library; point_of_interest; establishment,OPERATIONAL,0,0,NA
ChIJ2-Fm61lT2YAR_NQ9-Pzq52w,Union Square,32.71069,-117.1604016,Park,square,real_estate_agency; point_of_interest; establishment,OPERATIONAL,5,1,NA
ChIJ20JdWfmq3oARJGNqh8bS92Q,Bookstore,32.7500474,-117.21503,Social Business,bookstore,book_store; point_of_interest; store; establishment,OPERATIONAL,2,1,NA
ChIJ20Y4u-NX2YARv3Q5UTKmtNw,South Commons SDSU,32.772693,-117.070656,Community Space,city hall,point_of_interest; establishment,OPERATIONAL,0,0,NA
ChIJ21K_Zp0I3IAR1jLWi4Pknx8,Carmel Valley Community Center,32.9487498,-117.2339935,Community Space,community center,city_hall; local_government_office; point_of_interest; establishment,OPERATIONAL,3,2,NA
ChIJ21K_Zp0I3IAR1jLWi4Pknx8,Carmel Valley Community Center,32.9487498,-117.2339935,Community Space,city hall,city_hall; local_government_office; point_of_interest; establishment,OPERATIONAL,3,2,NA
ChIJ21mwBF9U2YAR7UvwjevPv4w,Ruamjai International Church,32.747507,-117.1244069,Place of Worship,place of worship,church; place_of_worship; point_of_interest; establishment,OPERATIONAL,0,0,NA
ChIJ22Z-1ptV2YARgat5diikShc,Cafe Nordstrom,32.7679584,-117.1687238,Social Business,cafe,restaurant; food; point_of_interest; establishment,OPERATIONAL,5,3,NA
ChIJ23A-esxL2YARxRqnr1U9e_M,Casa De Familia Bautista Vargas,32.523685,-117.0966213,Place of Worship,place of worship,place_of_worship; point_of_interest; establishment,OPERATIONAL,0,0,NA
ChIJ23DRmgtT2YARI814iQkwLI4,Dolores Magdaleno Memorial Recreation,32.6985523,-117.1316019,Community Space,community center,point_of_interest; establishment,OPERATIONAL,4.6,25,NA
ChIJ23P8NVEG3IARWjmhh352dUs,Torrey Coffee,32.9148775,-117.2284574,Social Business,cafe,cafe; food; point_of_interest; store; establishment,CLOSED_TEMPORARILY,2.3,3,TRUE
ChIJ264TgkD524ARXPhcxJsFFMk,Cattle Dog Coffee Co.,32.8826783,-117.1648175,Social Business,cafe,cafe; food; point_of_interest; store; establishment,OPERATIONAL,5,3,NA
ChIJ27IzZuv_24ARs0G9h80CXYQ,Sheperd Canyon Mini Park,32.8408996,-117.0908079,Park,park,park; point_of_interest; establishment,OPERATIONAL,0,0,NA
ChIJ27YS1-FU2YARRJgUCq-kgts,Buddha's Light Bookstore,32.759953,-117.1464361,Social Business,bookstore,book_store; point_of_interest; store; establishment,CLOSED_TEMPORARILY,4.9,9,TRUE
ChIJ28BTPjBS2YAR1f7oc56YYxM,International Church of Praise,32.680161,-117.092941,Place of Worship,place of worship,church; place_of_worship; point_of_interest; establishment,OPERATIONAL,5,3,NA
ChIJ28izgVJR2YARFvWBijePtEY,Chollas Lake Little League,32.7340183,-117.0678237,Park,park,park; tourist_attraction; point_of_interest; establishment,OPERATIONAL,4.6,47,NA
ChIJ29d15QFJ2YARvCFzfaUpjjU,San Ysidro Park,32.5554347,-117.0442874,Park,park,park; point_of_interest; establishment,OPERATIONAL,4.5,18,NA
ChIJ29gOYuYB3IARd7sfXFEBp1Q,Local Krave,32.8033951,-117.2145592,Social Business,cafe,bakery; cafe; restaurant; food; point_of_interest; store; establishment,OPERATIONAL,4.5,8,NA
ChIJ29nQ-9ED3IARViS_yvPl5WY,Wayfarer Bread & Pastry,32.8130139,-117.2685222,Social Business,cafe,bakery; cafe; food; point_of_interest; store; establishment,OPERATIONAL,4.7,344,NA
ChIJ29Oq3Bj-24AR7Eoivv4BYgA,Roadrunner Park,32.81812,-117.1005275,Park,park,park; tourist_attraction; point_of_interest; establishment,OPERATIONAL,4.4,113,NA
ChIJ2a7Z5lL_24ARrB-1nDXVfzA,Pacific Lighthouse Christian Fellowship,32.9119358,-117.1103214,Place of Worship,place of worship,church; place_of_worship; point_of_interest; establishment,OPERATIONAL,4.8,8,NA
ChIJ2aG1-KpJ2YARDZ0P3w_uJ3o,Madero Square Mall,32.5336526,-117.0354391,Park,square,shopping_mall; point_of_interest; establishment,OPERATIONAL,4.2,106,NA
ChIJ2blxssAB3IAR6dZqhYQNIY8,Konito's Cafe,32.8020972,-117.2382566,Social Business,cafe,restaurant; food; point_of_interest; establishment,OPERATIONAL,4.8,371,NA
ChIJ2c03ryb524ARzT9V8z9dtxI,San Diego Miramar College Library,32.911038,-117.121319,Community Space,library,library; point_of_interest; establishment,OPERATIONAL,3.7,16,NA
ChIJ2cbGh4FV2YARRXvNQLE6D8U,Maya Moon Collective,32.763135,-117.1219023,Social Business,cafe,bakery; cafe; food; point_of_interest; store; establishment,OPERATIONAL,4.8,41,NA
ChIJ2dAhAVBP2YAR2sPUzs9o2pk,"Boba Sky, LLC",32.5952061,-117.0687661,Social Business,cafe,cafe; food; point_of_interest; establishment,OPERATIONAL,3,2,NA
ChIJ2dwdGipS2YAR_ygJXQ7IWbk,Liberty Hall Theatre,32.6872554,-117.0791741,Community Space,city hall,point_of_interest; establishment,OPERATIONAL,4.3,13,NA
ChIJ2el6d80G3IAR01B8PQS7UQ8,La Jolla Village Square,32.8656579,-117.2319514,Park,square,shopping_mall; point_of_interest; establishment,OPERATIONAL,4.4,3390,NA
ChIJ2f77lDUB3IARBy4NBwf4T9U,Dan McKinney Family YMCA,32.858495,-117.24261,Community Space,community center,gym; health; point_of_interest; establishment,OPERATIONAL,4.6,264,NA
ChIJ2fbDmz3524ARL6WH6WitnAg,Redemption Church Office,32.9134214,-117.1112866,Place of Worship,place of worship,place_of_worship; point_of_interest; establishment,OPERATIONAL,0,0,NA
ChIJ2fhZ8Uj524AR_yx5BNi9LxI,Hoyt Park,32.904988,-117.099586,Park,park,park; tourist_attraction; point_of_interest; establishment,OPERATIONAL,4.4,159,NA
ChIJ2fPOQcdL2YAR8h53EE74j90,Playas Park,32.5175817,-117.1100967,Park,park,park; point_of_interest; establishment,OPERATIONAL,4.1,15,NA
ChIJ2fuiwP7524AR0_MTjxL8lJg,Starbucks,32.979217,-117.083743,Social Business,cafe,cafe; restaurant; food; point_of_interest; store; establishment,OPERATIONAL,4.2,325,NA
ChIJ2Q-3QURR2YARo8FgaDWC-qw,Dog Park,32.7154038,-117.0467751,Park,park,park; point_of_interest; establishment,OPERATIONAL,3,40,NA
ChIJ2Qf8hdT224ARO1tx2r_dBug,Westwood Club,33.0283739,-117.08323,Community Space,community center,point_of_interest; establishment,OPERATIONAL,4.4,198,NA
ChIJ2QH01jgG3IARp0k9WwN27og,Solana Beach Towne Centre,32.927106,-117.2370688,Community Space,community center,point_of_interest; establishment,CLOSED_TEMPORARILY,0,0,TRUE
ChIJ2SDDpkv224ARUiwWKk_8EGY,Black Mountain Ranch LLC,33.0129896,-117.1460067,Community Space,community center,point_of_interest; establishment,CLOSED_TEMPORARILY,5,1,TRUE
ChIJ2SHX4UhW2YARB8yZWZCYjAU,San Carlos Branch Library,32.8020038,-117.040569,Community Space,library,library; point_of_interest; establishment,OPERATIONAL,4.4,30,NA
ChIJ2SqWhhBX2YARBLT6H_2er7Q,Starbucks,32.7788985,-117.012798,Social Business,cafe,cafe; food; point_of_interest; store; establishment,OPERATIONAL,0,0,NA
ChIJ2SRqqhWr3oAR5NNLtl5ovnc,The Green Rose Cafe,32.7151687,-117.1732376,Social Business,cafe,cafe; food; point_of_interest; establishment,OPERATIONAL,3.5,8,NA
ChIJ2SS2lWWr3oARqbVYqzjANTY,San Diego Martial Arts & Community Center,32.7669936,-117.2027985,Community Space,community center,gym; health; point_of_interest; establishment,OPERATIONAL,0,0,NA
ChIJ2T7LpOOq3oARdCjcuYIuIO0,The Naked Cafe,32.7498156,-117.204728,Social Business,cafe,cafe; restaurant; food; point_of_interest; store; establishment,OPERATIONAL,4.3,193,NA
ChIJ2Ugte0lU2YARq92x5JbLt-Q,Starbucks,32.763382,-117.106544,Social Business,cafe,cafe; restaurant; food; point_of_interest; store; establishment,OPERATIONAL,4.3,274,NA
ChIJ2UWMoUeq3oAR2S7xpuJ2ssc,Bean Me Up Coffee,32.7502583,-117.2425183,Social Business,cafe,cafe; food; point_of_interest; establishment,OPERATIONAL,4.9,22,NA
ChIJ2VpMMqpU2YARZ7OSB5aoQ-w,Bruegger's Bagels,32.715485,-117.1685772,Social Business,cafe,bakery; cafe; restaurant; food; point_of_interest; store; establishment,OPERATIONAL,4.1,288,NA
ChIJ2VxdLiNU2YARDPnSNUqe6Lo,Tribe Church,32.7560902,-117.090832,Place of Worship,place of worship,church; place_of_worship; point_of_interest; establishment,OPERATIONAL,5,3,NA
ChIJ2w0g6KhU2YARtyUf7V0vMng,City Building Inspection/Public Safety,32.7181495,-117.1642655,Community Space,city hall,local_government_office; point_of_interest; establishment,OPERATIONAL,2,4,NA
ChIJ2wGaY34H3IARjveDBoW0hAg,Green Acre Campus Pointe Garden,32.8929195,-117.221863,Park,garden,park; point_of_interest; establishment,OPERATIONAL,0,0,NA
ChIJ2wQoLbxO2YARtCIchkD6d94,Otay Valley Regional Park,32.5886294,-117.062309,Park,park,park; tourist_attraction; point_of_interest; establishment,OPERATIONAL,4.5,501,NA
ChIJ2wsoCeJV2YAR-5yIhAmQsYw,UrbanLife Cafe,32.7554072,-117.1011965,Social Business,cafe,cafe; food; point_of_interest; store; establishment,OPERATIONAL,0,0,NA
ChIJ2WvtWVhL2YARXUduuNIbL1k,Delis & Cafe 13,32.5224029,-117.0839596,Social Business,cafe,cafe; food; point_of_interest; store; establishment,OPERATIONAL,5,4,NA
ChIJ2XNu5BFV2YARrZC9sIdcW2w,Wat-Tek Inc,32.7765168,-117.1386442,Place of Worship,place of worship,place_of_worship; point_of_interest; establishment,OPERATIONAL,0,0,NA
ChIJ2YruVAJJ2YARkDDTogkpeZo,Monte Horeb,32.5257167,-117.0495733,Place of Worship,place of worship,place_of_worship; point_of_interest; establishment,OPERATIONAL,0,0,NA
ChIJ2yuwGZ4I3IARGQ2CbxQbAP8,Cafe Pascale,32.9473917,-117.2388785,Social Business,cafe,cafe; food; point_of_interest; establishment,OPERATIONAL,4.8,30,NA
ChIJ2YxzPRFV2YAReBAUlN30f8A,Milano Coffee CO,32.7746232,-117.1432495,Social Business,cafe,cafe; food; point_of_interest; store; establishment,OPERATIONAL,4.5,149,NA
ChIJ2zcFYqMB3IARMau_-x4xtJM,Kate Sessions Park,32.8120392,-117.2381491,Park,park,park; tourist_attraction; point_of_interest; establishment,OPERATIONAL,4.8,1769,NA
ChIJ3_EECrJL2YARS24eQ28RAdA,Azteca Sur Park,32.5205402,-117.1146722,Park,park,park; point_of_interest; establishment,OPERATIONAL,4.4,432,NA
ChIJ3-w5tmdM2YARGd5lx_JH1KM,San Diego County Library – Imperial Beach Branch,32.57682,-117.1163201,Community Space,library,library; point_of_interest; establishment,OPERATIONAL,4.5,52,NA
ChIJ30IDcABV2YARoAX9bkk9cO0,Kenmore Terrace Mini-Park,32.7663757,-117.1271908,Park,park,park; point_of_interest; establishment,OPERATIONAL,3.9,18,NA
ChIJ30neyexO2YARnqBC9wK64vc,Connoley Park Entrance,32.5994406,-117.0554051,Park,park,park; point_of_interest; establishment,OPERATIONAL,3.9,21,NA
ChIJ314jBHQA3IARZERExO-KHtA,Panera Bread,32.8203646,-117.1798948,Social Business,cafe,cafe; bakery; meal_takeaway; restaurant; food; point_of_interest; store; establishment,OPERATIONAL,4.1,712,NA
ChIJ31CUHk1T2YAR740H0drF3M4,Centennial Park,32.6993653,-117.1719467,Park,park,park; tourist_attraction; point_of_interest; establishment,OPERATIONAL,4.8,1724,NA
ChIJ32kUzyn524ARdHr674A2s6w,The Union of Pan Asian Communities - Positive Solutions Program,32.8974256,-117.1254815,Community Space,community center,point_of_interest; establishment,CLOSED_TEMPORARILY,0,0,TRUE
ChIJ32RSxcf524ARFBZS-uZmyG0,40N Pho and Grille,32.9027402,-117.0993582,Social Business,cafe,restaurant; food; point_of_interest; establishment,OPERATIONAL,4.7,86,NA
ChIJ33Rwa9Hw24ARxyX1WxmRI9c,Starbucks,33.02097,-117.072197,Social Business,cafe,cafe; food; point_of_interest; establishment,OPERATIONAL,3.9,26,NA
ChIJ33vPTuz524AReCRi-UcBW9s,Leap Coffee Sabre Springs,32.9623799,-117.0945245,Social Business,cafe,cafe; food; point_of_interest; store; establishment,OPERATIONAL,5,4,NA
ChIJ343yaNLw24ARr9YqM5ki6r4,Jack in the Box,33.0176646,-117.0752612,Social Business,cafe,restaurant; food; point_of_interest; establishment,OPERATIONAL,3.9,349,NA
ChIJ34dMXbUH3IARp0nns0zz-Us,Madras Cafe,32.9008039,-117.1929538,Social Business,cafe,restaurant; food; point_of_interest; establishment,OPERATIONAL,4.4,146,NA
ChIJ351siQwA3IAR8dPGvD-yqEY,Mount Acadia Neighborhood Park,32.8123814,-117.1805156,Park,park,park; tourist_attraction; point_of_interest; establishment,OPERATIONAL,4.3,193,NA
ChIJ35rHt4VW2YARVL-gF1webls,South Campus Plaza SDSU,32.771399099999996,-117.0703317,Community Space,community center,point_of_interest; establishment,OPERATIONAL,5,1,NA
ChIJ36dooi0J3IARvH-GZW8iyhQ,REVÉ CHURCH,32.9578345,-117.2267556,Place of Worship,place of worship,church; place_of_worship; point_of_interest; establishment,OPERATIONAL,4.9,8,NA
ChIJ36fM00xL2YARCmP-6HyG62s,Arka Tijuana,32.5313135,-117.1161343,Place of Worship,place of worship,church; place_of_worship; point_of_interest; establishment,OPERATIONAL,5,4,NA
ChIJ36GqYQ0H3IAROYdLekiK9FY,Carmel Knolls Park,32.9499636,-117.2140638,Park,park,park; tourist_attraction; point_of_interest; establishment,OPERATIONAL,4.7,59,NA
ChIJ37f4e9sB3IARmyabJInvw5s,The Grounds Bean Bar,32.7885436,-117.2378431,Social Business,cafe,cafe; food; point_of_interest; store; establishment,OPERATIONAL,4.6,159,NA
ChIJ37RTbPFR2YAROGWbFJAVc3Y,San Diego County Library – Lincoln Acres Branch,32.6666052,-117.0714052,Community Space,library,library; point_of_interest; establishment,OPERATIONAL,4.6,31,NA
ChIJ38RVob7924ARKfNgaCcoDLg,Oak Canyon,32.8492561,-117.0503458,Park,park,park; tourist_attraction; point_of_interest; establishment,OPERATIONAL,4.7,23,NA
ChIJ38SIK5ZU2YARZBltxwg0CGs,Casa del Rey Moro Garden,32.7307328,-117.1497061,Park,garden,tourist_attraction; park; point_of_interest; establishment,OPERATIONAL,4.9,13,NA
ChIJ39acpspT2YARhsfwqqpdabo,Church of God of Prophecy,32.6873869,-117.1026223,Place of Worship,place of worship,church; place_of_worship; point_of_interest; establishment,OPERATIONAL,5,5,NA
ChIJ3aFFznv_24AREFR9cF-JWKA,Matcha Cafe Maiko,32.8334949,-117.1492466,Social Business,cafe,food; point_of_interest; store; establishment,OPERATIONAL,4.6,142,NA
ChIJ3b79JA1M2YAREBxUHTDlRLc,Iris Gardens,32.5695272,-117.1019778,Park,garden,neighborhood; political,NA,NA,NA,NA
ChIJ3bQyzZwH3IARUYkSNlHMskI,Beach Trailhead,32.9197262,-117.2530457,Park,park,park; point_of_interest; establishment,OPERATIONAL,4.9,19,NA
ChIJ3bWBvKBV2YARoPsiSDaPE_Q,Lowe's Garden Center,32.7809165,-117.1260129,Park,garden,point_of_interest; store; establishment,OPERATIONAL,4.3,13,NA
ChIJ3dGb4KVO2YARMwiDAH8H_Yk,Living Word Community Church,32.5798884,-117.0753385,Place of Worship,place of worship,church; place_of_worship; point_of_interest; establishment,OPERATIONAL,5,4,NA
ChIJ3dP6Ly0H3IARg-7v1aDafSk,Amazon Books,32.87137990000001,-117.2100123,Social Business,bookstore,book_store; electronics_store; point_of_interest; store; establishment,OPERATIONAL,4.4,653,NA
ChIJ3dSWaw1R2YARM1oM8aCYEfw,New Paradise Church,32.7071334,-117.0538308,Place of Worship,place of worship,place_of_worship; point_of_interest; establishment,OPERATIONAL,2,1,NA
ChIJ3ecgBsD_24ARwJEaZ0REenI,Mercury Books,32.82140580000001,-117.1494074,Social Business,bookstore,movie_rental; point_of_interest; store; establishment,OPERATIONAL,4.4,16,NA
ChIJ3eLgpGMH3IARFkC7mLMzFOM,Blue Box Bagels And Brew,32.9061665,-117.1774371,Social Business,cafe,bakery; cafe; restaurant; food; point_of_interest; store; establishment,OPERATIONAL,4.6,151,NA
ChIJ3Q_Ck0BV2YARdRpF6T0pjmw,The Café at Rady Children’s Hospital,32.7992221,-117.1512133,Social Business,cafe,restaurant; food; point_of_interest; establishment,OPERATIONAL,5,2,NA
ChIJ3Q-Zmuv424ARohZrKgKID1w,Starbucks,32.91124,-117.145874,Social Business,cafe,cafe; food; point_of_interest; store; establishment,OPERATIONAL,3.9,28,NA
ChIJ3QOAamn-24ARL9OuiHGQH84,Industrial Grind Coffee,32.840261,-117.0984271,Social Business,cafe,cafe; food; point_of_interest; store; establishment,OPERATIONAL,4.6,184,NA
ChIJ3QYg-ylO2YARfRLA0p9e8VQ,Fresheria - Be Fresh Bonita,32.6586977,-117.0382852,Social Business,cafe,restaurant; food; point_of_interest; store; establishment,OPERATIONAL,4.3,64,NA
ChIJ3RBHbNpX2YARLAdfBubfcJs,Grossmont College Bookstore,32.8164953,-117.0063045,Social Business,bookstore,book_store; point_of_interest; store; establishment,OPERATIONAL,4,1,NA
ChIJ3ROW4vBR2YARPSpQUZjRPeQ,Twins softball park,32.666552,-117.065363,Park,park,park; point_of_interest; establishment,OPERATIONAL,0,0,NA
ChIJ3RVSgzwG3IARLvoI4xy95dY,Living Water Lutheran Church at the Hampton Inn,32.9347109,-117.2385432,Place of Worship,place of worship,church; place_of_worship; point_of_interest; establishment,OPERATIONAL,5,2,NA
ChIJ3TnOJdmq3oARhIiR9n8H1PA,Heritage County Park,32.75323,-117.1917515,Park,park,park; tourist_attraction; point_of_interest; establishment,OPERATIONAL,4.6,181,NA
ChIJ3U0k4uMD3IARmiFekr1YhyM,Bauer Rare Books,32.839977,-117.2727094,Social Business,bookstore,book_store; point_of_interest; store; establishment,CLOSED_TEMPORARILY,3.4,5,TRUE
ChIJ3UczTSlJ2YARxCSGlHJDr4o,Pangea Cafe Para Todxs,32.5323755,-117.0369107,Social Business,cafe,cafe; food; point_of_interest; store; establishment,OPERATIONAL,5,13,NA
ChIJ3UiKQMn_24AR7nS4Tlh5Dlo,Gotcha Cafe San Diego,32.8306583,-117.1391011,Social Business,cafe,cafe; food; point_of_interest; establishment,OPERATIONAL,4.5,120,NA
ChIJ3UT7JuP524AR9eqR2WRT3zU,Miramar college bookstore,32.9096315,-117.1202665,Social Business,bookstore,book_store; point_of_interest; store; establishment,OPERATIONAL,4.2,6,NA
ChIJ3V1f7srx24ARPEPnZIim0kY,"Ysabel Creek Rd Staging Area, San Dieguito River Park",33.0774775,-116.9874763,Park,park,park; point_of_interest; establishment,OPERATIONAL,4.8,16,NA
ChIJ3Vb7o5RO2YARnBDsJgpxfM4,Otay Park,32.5974293,-117.0569741,Park,park,park; point_of_interest; establishment,OPERATIONAL,4.5,210,NA
ChIJ3VFcy6dU2YARZ0GfaOwf8LM,A Culture of Peace Inc,32.7173739,-117.1606327,Place of Worship,place of worship,place_of_worship; point_of_interest; establishment,OPERATIONAL,0,0,NA
ChIJ3W4jP5xN2YARgQrM1hrrXg0,"Revival & Kingdom Ministries, INC",32.5847574,-117.1076575,Place of Worship,place of worship,church; place_of_worship; point_of_interest; establishment,OPERATIONAL,0,0,NA
ChIJ3wp3fL-s3oAR4GD0WCY-MMY,Coronado Beach & Dog Park,32.68657,-117.193616,Park,park,tourist_attraction; park; point_of_interest; establishment,OPERATIONAL,4.7,11130,NA
ChIJ3ws6GlVX2YAR_CU34zup_U4,Junior Seau Sports Complex,32.7896815,-117.0038466,Park,park,park; tourist_attraction; point_of_interest; establishment,OPERATIONAL,4.5,169,NA
ChIJ3x-EYnz524ARhYLZukl3G7U,Scripps Ranch Community Center,32.9330395,-117.0833384,Community Space,community center,point_of_interest; establishment,OPERATIONAL,4.5,23,NA
ChIJ3xa-A6pJ2YARM_YW0dkclHo,The Grafógrafo: Books and coffee,32.5337056,-117.0378387,Social Business,bookstore,book_store; library; point_of_interest; store; establishment,OPERATIONAL,4.8,54,NA
ChIJ3xuLR_tN2YARE2U88sGMe0g,Friends of the Imperial Beach Library Bookstore,32.5767819,-117.1161766,Community Space,library,book_store; point_of_interest; store; establishment,CLOSED_TEMPORARILY,0,0,TRUE
ChIJ3xuLR_tN2YARE2U88sGMe0g,Friends of the Imperial Beach Library Bookstore,32.5767819,-117.1161766,Social Business,bookstore,book_store; point_of_interest; store; establishment,CLOSED_TEMPORARILY,0,0,TRUE
ChIJ3YhjbgSr3oAR9mgKWQ0PEVw,Banyan Kitchen + Cafe,32.7384311,-117.2127901,Social Business,cafe,cafe; food; point_of_interest; store; establishment,OPERATIONAL,4.6,61,NA
ChIJ3Z4rFz6r3oAROItKSqoA2UY,San Diego Bay News and Cafe,32.7316858,-117.1961661,Social Business,cafe,point_of_interest; store; establishment,OPERATIONAL,0,0,NA
ChIJ3zikp_P_24ARu0Gw2T8PO3g,CHAKAA,32.8196545,-117.1560112,Social Business,cafe,cafe; food; point_of_interest; establishment,OPERATIONAL,4.6,78,NA
ChIJ4_64EO5J2YARAMrG3WMF9mA,Yum Yum Donuts,32.5559753,-117.0546563,Social Business,cafe,meal_delivery; bakery; cafe; restaurant; food; point_of_interest; store; establishment,OPERATIONAL,4.4,529,NA
ChIJ4_LzwsZW2YARCzON_4tE-c8,The Salvation Army Kroc Center,32.7545905,-117.0497609,Community Space,community center,church; place_of_worship; point_of_interest; establishment,OPERATIONAL,4.4,62,NA
ChIJ400DJH2q3oARb1bi_5oqoUA,Fiesta Island Dog Park,32.7735119,-117.2240403,Park,park,tourist_attraction; park; point_of_interest; establishment,OPERATIONAL,4.8,1021,NA
ChIJ41oO-TXx24ARRpIX-u2jv2w,RB Community Park Double Baseball Fields,33.0474793,-117.0749376,Park,park,park; point_of_interest; establishment,OPERATIONAL,4.5,162,NA
ChIJ41Y6CvtV2YARUabHAKTwtwg,Pride Square Parking,32.748992200000004,-117.1495674,Park,square,point_of_interest; establishment,OPERATIONAL,0,0,NA
ChIJ4358-igJ3IARP-VhF9H7iY0,Eden Gardens,32.9872663,-117.2580921,Park,garden,colloquial_area; political,NA,NA,NA,NA
ChIJ46c0aodW2YARLD1QleLQOAs,Hepner Hall,32.7761556,-117.0716997,Community Space,city hall,point_of_interest; establishment,OPERATIONAL,4.6,36,NA
ChIJ46zfJhry24ARBaXn8WhXG-U,Zoological Society Library,33.0950154,-117.0015434,Community Space,library,library; point_of_interest; establishment,CLOSED_TEMPORARILY,4,4,TRUE
ChIJ47nPD9MO3IARIOc1850y1rg,Chicweed Patio & Garden,32.988512,-117.269684,Park,garden,park; point_of_interest; store; establishment,OPERATIONAL,4.7,3,NA
ChIJ47Sbw_5W2YAR1oume_JxN38,Sunset Park,32.7819741,-117.0376775,Park,park,park; point_of_interest; establishment,OPERATIONAL,4.2,60,NA
ChIJ48z3dddR2YARyfFd4ulU9lM,Monterey Heights Park,32.7237342,-117.0336051,Park,park,park; point_of_interest; establishment,OPERATIONAL,0,0,NA
ChIJ49HyC1lT2YARqsYniu-frc8,Park,32.7116809,-117.1584973,Park,park,park; point_of_interest; establishment,OPERATIONAL,0,0,NA
ChIJ49sKSwH624ARHVAmrdfzMRQ,Carmel Mountain Ranch Library,32.9816661,-117.0737858,Community Space,library,library; point_of_interest; establishment,OPERATIONAL,4.5,32,NA
ChIJ4am3XLlO2YARR4rWZO0FQLo,The Light Of The World Church,32.5853572,-117.0612203,Place of Worship,place of worship,church; place_of_worship; point_of_interest; establishment,OPERATIONAL,4.5,4,NA
ChIJ4arV1aVU2YAR4DCAquMBOQ4,San Diego Center for Spiritual Living,32.7509859,-117.2143754,Place of Worship,place of worship,church; place_of_worship; point_of_interest; establishment,OPERATIONAL,4,4,NA
ChIJ4b--fXZN2YARjXkQ_vBkaoo,Grand Caribe Shoreline Park,32.6235501,-117.1293247,Park,park,park; tourist_attraction; point_of_interest; establishment,OPERATIONAL,4.7,86,NA
ChIJ4chmynxL2YARknHBq4aqVc4,QualityHuman Mexico,32.5319163,-117.1118167,Community Space,city hall,local_government_office; point_of_interest; establishment,OPERATIONAL,0,0,NA
ChIJ4cxP5CsH3IARf01liUEDJGA,La Jolla Square,32.8731384,-117.2157745,Park,square,point_of_interest; establishment,OPERATIONAL,4.5,40,NA
ChIJ4dQoatkI3IARmh0zg4yb39Q,Starbucks,32.981451,-117.251464,Social Business,cafe,cafe; restaurant; food; point_of_interest; store; establishment,OPERATIONAL,4.4,165,NA
ChIJ4drtFaOr3oAR8WMz27lb4L0,SQ3 Partners,32.7230081,-117.2308129,Park,square,point_of_interest; establishment,OPERATIONAL,0,0,NA
ChIJ4dtzmj1X2YAR0z4fN69dmIQ,Little free library,32.8151565,-117.0615025,Community Space,library,library; point_of_interest; establishment,OPERATIONAL,0,0,NA
ChIJ4duVy2wH3IAR7OiRmz0YH2s,Shaka Java,32.8678105,-117.2284322,Social Business,cafe,cafe; food; point_of_interest; store; establishment,OPERATIONAL,5,16,NA
ChIJ4eElEIdW2YARF8Cyj-g9o2c,Smith Recital Hall,32.77437889999999,-117.0723008,Community Space,city hall,electronics_store; home_goods_store; point_of_interest; store; establishment,CLOSED_TEMPORARILY,4.7,24,TRUE
ChIJ4egpWncB3IARICtKDnV22zE,Feng Cha Teahouse 奉茶 San Diego,32.8220621,-117.1843455,Social Business,cafe,cafe; food; point_of_interest; store; establishment,OPERATIONAL,4.6,38,NA
ChIJ4ewiZ4H524ARRUe9hj1bu-o,Hob Coffee Sabre Springs,32.9451033,-117.0844662,Social Business,cafe,cafe; food; point_of_interest; store; establishment,OPERATIONAL,4.8,249,NA
ChIJ4fB2zSoC3IARQung7-rjxOU,Bird Rock Coffee Roasters,32.8144743,-117.2697587,Social Business,cafe,cafe; food; point_of_interest; store; establishment,OPERATIONAL,4.7,1034,NA
ChIJ4fG8sHtJ2YARFrfH8abHp2Q,Espacio Migrante,32.538251,-117.0343361,Community Space,community center,point_of_interest; establishment,OPERATIONAL,4.7,53,NA
ChIJ4flusIJU2YARpsY09810oAo,Golden Hill Recreation Center,32.7209111,-117.137489,Community Space,community center,point_of_interest; establishment,OPERATIONAL,4.6,121,NA
ChIJ4fMP39NV2YAR4bUxaQal3hk,Magic Garden Dreams,32.753439,-117.1409415,Park,garden,general_contractor; point_of_interest; establishment,OPERATIONAL,5,5,NA
ChIJ4QkDHNUG3IARVoFp_Gg4qaE,Taming Your Guts,32.8689334,-117.2231126,Social Business,bookstore,book_store; point_of_interest; store; establishment,CLOSED_TEMPORARILY,0,0,TRUE
ChIJ4SqB4uhU2YARUpOKUUBvf6c,"BALBOA PERK, Coffee & Tea",32.7469826,-117.1461038,Social Business,cafe,cafe; restaurant; food; point_of_interest; store; establishment,OPERATIONAL,4.6,93,NA
ChIJ4ThxTo9R2YARWN1KxZJDAfk,Yum Yum Donuts,32.6816667,-117.0730556,Social Business,cafe,bakery; cafe; restaurant; food; point_of_interest; store; establishment,OPERATIONAL,4.4,158,NA
ChIJ4VZnyWEH3IAR6jW-d6W4BdE,WFM Coffee & Juice Bar,32.8687404,-117.2306258,Social Business,cafe,cafe; food; point_of_interest; store; establishment,OPERATIONAL,1,1,NA
ChIJ4WHT5OZV2YARgy1pknPWTm4,Little Free Library XO,32.7441252,-117.136563,Community Space,library,library; point_of_interest; establishment,OPERATIONAL,0,0,NA
ChIJ4wOOsfVR2YARFmj6g-45xzM,South Bay Community Church,32.6679582,-117.0777036,Place of Worship,place of worship,church; place_of_worship; point_of_interest; establishment,OPERATIONAL,4.9,17,NA
ChIJ4WpqpClO2YAR_mYQ2OnEMaY,CUB SCOUTS PACK 888,32.6570306,-117.0401418,Community Space,community center,point_of_interest; establishment,OPERATIONAL,5,4,NA
ChIJ4xFo5blT2YARC5jTTewjkZ8,Genteel Coffee Co.,32.7482436,-117.1355554,Social Business,cafe,cafe; food; point_of_interest; store; establishment,OPERATIONAL,4.8,158,NA
ChIJ4xNwUroH3IARJF8XuOFGbWM,Sage Canyon Park,32.9263355,-117.2062196,Park,park,tourist_attraction; park; point_of_interest; establishment,OPERATIONAL,4.3,112,NA
ChIJ4xocydxU2YARc_lDi2wNw-g,Lestat's Hillcrest,32.748223,-117.154218,Social Business,cafe,cafe; food; point_of_interest; store; establishment,OPERATIONAL,4.5,831,NA
ChIJ4YOwG7lT2YARfq57pGQFFQs,Mountain View Community Center,32.6993852,-117.1059307,Community Space,community center,point_of_interest; establishment,OPERATIONAL,4.4,100,NA
ChIJ4yu5A3JJ2YARuiNDFch3T3E,El río de café,32.5336855,-117.0183634,Social Business,cafe,restaurant; food; point_of_interest; establishment,OPERATIONAL,5,1,NA
ChIJ4z0QY-r424ARcuh45YPRVbg,Ly Gardener,32.906806,-117.146828,Park,garden,general_contractor; point_of_interest; establishment,OPERATIONAL,0,0,NA
ChIJ4zUEDv4A3IARZBpGSnG706k,Pasquale's Gardening Services,32.8310334,-117.2194436,Park,garden,general_contractor; point_of_interest; establishment,OPERATIONAL,4,1,NA
ChIJ5_NWQ5NI2YARl33sdo5IQlc,Pacific Gateway Park,32.5546133,-117.0058446,Park,park,park; point_of_interest; establishment,OPERATIONAL,4.1,162,NA
ChIJ5_pd_ZcH3IARJeDble35aBE,Ellie's Garden,32.8860023,-117.2434953,Park,garden,park; point_of_interest; establishment,OPERATIONAL,0,0,NA
ChIJ5_S5vvgG3IARnyIGmifbf5k,Center for Spiritual Living One Heart One Mind,33.0023835,-117.0572126,Place of Worship,place of worship,church; place_of_worship; point_of_interest; establishment,OPERATIONAL,4,4,NA
ChIJ5-UQkGIH3IAROuO421D6Fm4,Congressman Scott Peters,32.8756985,-117.2121703,Community Space,city hall,point_of_interest; establishment,OPERATIONAL,4,4,NA
ChIJ50_TUitQ2YARpGPpP3gl40o,Rohr Park,32.6659126,-117.0317791,Park,park,park; tourist_attraction; point_of_interest; establishment,OPERATIONAL,4.6,2071,NA
ChIJ50MOAYEB3IARHv9ia7LZVNA,Earl & Birdie Taylor Park,32.7941868,-117.2491954,Park,park,park; point_of_interest; establishment,OPERATIONAL,0,0,NA
ChIJ50s5Q7QH3IARf55fm_UIZmQ,Ocean Air Recreation Center,32.9278347,-117.2170307,Community Space,community center,point_of_interest; establishment,OPERATIONAL,4.5,178,NA
ChIJ50VElfBU2YARf2QT27i0Df4,North Park Recreation Center,32.7509148,-117.1341675,Community Space,community center,point_of_interest; establishment,OPERATIONAL,4.4,69,NA
ChIJ52NLSrH524ARwGws8c1ZWPE,Nutrition Checkpoint,32.8948462,-117.1230284,Social Business,cafe,cafe; restaurant; food; health; point_of_interest; store; establishment,OPERATIONAL,5,10,NA
ChIJ52Q1xxKq3oARD8EcPAkCvnI,Mariner’s Point Park,32.7672228,-117.2451981,Park,park,park; tourist_attraction; point_of_interest; establishment,OPERATIONAL,4.5,263,NA
ChIJ53-T7GkH3IARSck9pShnwpM,New Day Community Center,32.8971252,-117.1902896,Community Space,community center,health; point_of_interest; establishment,OPERATIONAL,0,0,NA
ChIJ53jLXyf724ART3WDFRQM8A0,Square One Insurance Services,32.9606477,-117.0015008,Park,square,insurance_agency; point_of_interest; establishment,OPERATIONAL,5,1,NA
ChIJ54SjvLZT2YARBnX0YwQjA6s,Midnight Animal Coffee,32.6553465,-117.1020698,Social Business,cafe,cafe; food; point_of_interest; store; establishment,OPERATIONAL,5,20,NA
ChIJ56mPCPhV2YARjM6jHYRKink,Rio Vista Cafe,32.7767771,-117.138388,Social Business,cafe,cafe; food; point_of_interest; establishment,OPERATIONAL,3,4,NA
ChIJ56xswYVW2YARGd2CuZUVnWM,Cantina Square,32.7716343,-117.0693617,Park,square,point_of_interest; establishment,OPERATIONAL,4,1,NA
ChIJ57Ga1IQB3IARHuEnhKw3jx0,Lilikoi Boba,32.7973039,-117.2515414,Social Business,cafe,cafe; food; point_of_interest; establishment,OPERATIONAL,5,10,NA
ChIJ57pk-dlU2YAR5dUiobJNBm8,Mercy Staff Memorial Garden,32.7515825,-117.1612665,Park,garden,park; point_of_interest; establishment,OPERATIONAL,4.5,2,NA
ChIJ57Q2Hb3w24ARFNWTSN8ZV8g,Einstein Bros. Bagels,33.0023753,-117.0591052,Social Business,cafe,bakery; cafe; restaurant; food; point_of_interest; store; establishment,OPERATIONAL,4.2,199,NA
ChIJ57YErZtX2YAR1pxdTK-YMMc,Starbucks,32.800733,-117.002532,Social Business,cafe,cafe; restaurant; food; point_of_interest; store; establishment,OPERATIONAL,4.2,228,NA
ChIJ5a_j3ZlL2YARrWiMaHra8Mc,Malvia Playas,32.5232097,-117.1157929,Social Business,cafe,cafe; food; point_of_interest; establishment,CLOSED_TEMPORARILY,2,4,TRUE
ChIJ5aDhsixX2YARHFLO0yW5xJs,Mejgan Afshan for La Mesa City Council,32.782726,-117.0298936,Community Space,community center,point_of_interest; establishment,OPERATIONAL,0,0,NA
ChIJ5bmcRRRU2YARN83QsELMWlE,Highland and Landis Park,32.7465527,-117.0988982,Park,park,park; point_of_interest; establishment,OPERATIONAL,3.7,83,NA
ChIJ5c283-oG3IARKvJdFu47Mi8,Café Ventanas,32.8860312,-117.242574,Social Business,cafe,restaurant; food; point_of_interest; establishment,OPERATIONAL,3.2,79,NA
ChIJ5cTfMvqq3oARGRnGSUzt3_k,Garden Center at The Home Depot,32.7523175,-117.2128676,Park,garden,furniture_store; home_goods_store; general_contractor; point_of_interest; store; establishment,OPERATIONAL,4.7,6,NA
ChIJ5dJosZwI3IAR-IPfkUfnjgM,"Snooze, an A.M. Eatery",32.9530802,-117.2326572,Social Business,cafe,bar; restaurant; food; point_of_interest; establishment,OPERATIONAL,4.6,1010,NA
ChIJ5eiw5KBJ2YARuyRvaACRPKE,Biblioteca Josefa Ortíz de Domínguez.,32.5316854,-117.0520617,Community Space,library,library; point_of_interest; establishment,CLOSED_TEMPORARILY,1,1,TRUE
ChIJ5ep_C5dW2YARb8IfEcK1K78,Tapioca Express,32.7608968,-117.0657373,Social Business,cafe,cafe; restaurant; food; point_of_interest; establishment,OPERATIONAL,4,122,NA
ChIJ5epov1Gr3oAR0NMUE5_jsdU,Grosvenor Square,32.7508953,-117.2061994,Park,square,shopping_mall; point_of_interest; establishment,OPERATIONAL,4.3,212,NA
ChIJ5f5HKCtM2YARJYKzPnwBngQ,McDonald's,32.6036876,-117.0792724,Social Business,cafe,cafe; restaurant; food; point_of_interest; store; establishment,OPERATIONAL,3.8,1321,NA
ChIJ5ftnGo5R2YAR--32QHBZFb4,United Church of Christ in Paradise Hills,32.6795401,-117.0678119,Place of Worship,place of worship,church; place_of_worship; point_of_interest; establishment,OPERATIONAL,5,6,NA
ChIJ5Qj2iKxX2YARUuuPRiLmef4,Kratom Kava Bar,32.7636549,-117.0217664,Social Business,cafe,cafe; food; health; point_of_interest; store; establishment,OPERATIONAL,5,16,NA
ChIJ5QJ9QQ9U2YARj_SrdzbpWrI,City Farmers Nursery,32.7376785,-117.0926638,Park,garden,food; point_of_interest; store; establishment,OPERATIONAL,4.8,242,NA
ChIJ5QvfKEVN2YARlnHoN6KEAB0,Elysium Cafe Hookah Lounge,32.6112912,-117.081293,Social Business,cafe,point_of_interest; establishment,OPERATIONAL,5,2,NA
ChIJ5Sz4QfoD3IARAbJ9G-O35SA,The Green Gazebo,32.8475861,-117.2779487,Park,park,park; point_of_interest; establishment,OPERATIONAL,5,6,NA
ChIJ5TtGM3T-24AReAxh9ZSi2AU,Mission Trails Park - Portobelo Entrance,32.8418778,-117.0824004,Park,park,park; point_of_interest; establishment,OPERATIONAL,4.5,20,NA
ChIJ5UoEtrMG3IARV_bsjRD41KI,Southwest Fisheries Sci Library,32.8704583,-117.2508796,Community Space,library,library; point_of_interest; establishment,CLOSED_TEMPORARILY,0,0,TRUE
ChIJ5VxQXASr3oARqRrwC7lVNTw,Con Pane Rustic Breads & Cafe,32.7380556,-117.2125,Social Business,cafe,bakery; cafe; food; point_of_interest; store; establishment,OPERATIONAL,4.6,676,NA
ChIJ5wAICwJX2YARVg8FpgSA29U,LA CAFETTE,32.780212,-117.0321,Social Business,cafe,food; point_of_interest; establishment,OPERATIONAL,0,0,NA
ChIJ5WjoAu7524ARpbYOBua9JJk,Carmel Mountain Ranch Community Park,32.9662243,-117.0915437,Park,park,park; point_of_interest; establishment,OPERATIONAL,4.6,133,NA
ChIJ5WMMPQSr3oARCtsMmhYUEqY,Liberty Station,32.7376006,-117.2134718,Community Space,community center,art_gallery; shopping_mall; museum; point_of_interest; establishment,OPERATIONAL,4.7,16704,NA
ChIJ5wQBhDoH3IAR6rv1vVLVQnI,Latte By The Sea,32.8821825,-117.2054493,Social Business,cafe,cafe; food; point_of_interest; establishment,CLOSED_TEMPORARILY,4.8,6,TRUE
ChIJ5XDewh4H3IARyRuTfknQOds,Grace Garden San Diego,32.946944,-117.2341834,Park,garden,point_of_interest; establishment,OPERATIONAL,0,0,NA
ChIJ5xNoUKdU2YARRxgO27aNy70,San Diego Square,32.7162009,-117.1561498,Park,square,point_of_interest; establishment,OPERATIONAL,4.5,17,NA
ChIJ5xqcmJNW2YARdx8ikR1du3E,Spanky's Coffee Company,32.7655498,-117.0596051,Social Business,cafe,cafe; food; point_of_interest; store; establishment,OPERATIONAL,0,0,NA
ChIJ5xtuvV8G3IAR1DMZGTxvX88,Cafe Pascale,32.8761385,-117.2108817,Social Business,cafe,cafe; food; point_of_interest; establishment,OPERATIONAL,4.4,14,NA
ChIJ5Y1hjICq3oAR-Uo9yVvkrvg,Dog Training Area,32.7882608,-117.2169972,Park,park,park; point_of_interest; establishment,OPERATIONAL,4.5,8,NA
ChIJ5ySzDdj_24ARjP5MWEIabwA,Cali Cafe,32.8037566,-117.1394789,Social Business,cafe,cafe; food; point_of_interest; store; establishment,OPERATIONAL,4.5,135,NA
ChIJ5YT-GVZV2YARPZAkrj1zTCs,Starbucks,32.720024,-117.16762,Social Business,cafe,cafe; restaurant; food; point_of_interest; store; establishment,OPERATIONAL,4.4,72,NA
ChIJ5YUrb8cB3IARJH_IXJ9rcXU,Charlie's Best Bread,32.8012552,-117.2373003,Social Business,cafe,bakery; meal_takeaway; cafe; restaurant; food; point_of_interest; store; establishment,OPERATIONAL,4.4,157,NA
ChIJ5ZqXqmRV2YARCwVJphq2v04,Jane's Cafe,32.7654914,-117.1616744,Social Business,cafe,cafe; restaurant; food; point_of_interest; store; establishment,OPERATIONAL,4.6,50,NA
ChIJ6_R6EJZU2YARjlNooLF78lc,Botanical Building,32.7324886,-117.1492088,Park,garden,park; point_of_interest; establishment,CLOSED_TEMPORARILY,4.7,4148,TRUE
ChIJ60_QXEFM2YAR53hp9GPuAys,City Christian Center,32.5847574,-117.1076575,Place of Worship,place of worship,church; place_of_worship; point_of_interest; establishment,OPERATIONAL,0,0,NA
ChIJ602qR_j_24ARKBbC_gW-f4U,LRC - Library,32.804922,-117.1716018,Community Space,library,library; point_of_interest; establishment,OPERATIONAL,4.5,14,NA
ChIJ60XjA3yr3oARjg_vhJT9k0s,Portside Coffee and Gelato,32.7206188,-117.2272858,Social Business,cafe,cafe; food; point_of_interest; establishment,OPERATIONAL,4.7,130,NA
ChIJ61QchuVX2YARZSPEUgMavOU,Little free library,32.7947603,-117.0563377,Community Space,library,library; point_of_interest; establishment,OPERATIONAL,0,0,NA
ChIJ63CmH5dU2YARTD5Iv8LAGlU,Inez Grant Parker Memorial Rose Garden,32.7315254,-117.1457443,Park,park,tourist_attraction; park; point_of_interest; establishment,OPERATIONAL,4.8,898,NA
ChIJ63IO6KH524ARy3FrrHMV9j4,Pacific Coast Health Smoothie,32.93573800000001,-117.0997716,Social Business,cafe,restaurant; food; point_of_interest; establishment,OPERATIONAL,5,14,NA
ChIJ63Thyh1T2YARpcgHp1Apn5E,Market on 8th,32.6762833,-117.1062065,Social Business,cafe,restaurant; cafe; bar; food; point_of_interest; store; establishment,OPERATIONAL,4.5,91,NA
ChIJ64IwzUAD3IAR6_R4JRCh7vE,Jolla swing,32.8484508,-117.2676131,Place of Worship,place of worship,place_of_worship; point_of_interest; establishment,CLOSED_PERMANENTLY,0,0,TRUE
ChIJ64v5J73_24ARnQ4XFZwVIMs,Camellia Rd Tea Bar,32.832207,-117.1468614,Social Business,cafe,cafe; food; point_of_interest; establishment,OPERATIONAL,4.7,232,NA
ChIJ657ogQmr3oAREZ8GbTQTh9w,Starbucks,32.727927,-117.217728,Social Business,cafe,cafe; restaurant; food; point_of_interest; store; establishment,OPERATIONAL,4.5,287,NA
ChIJ65us1X5U2YARm9N2dUYpQIM,Juniper Canyon,32.7271624,-117.1212364,Park,park,park; tourist_attraction; natural_feature; point_of_interest; establishment,OPERATIONAL,4.3,85,NA
ChIJ66FLJy8H3IARhmK5Dpxrwt4,Good Samaritan Episcopal Church,32.87713,-117.2133647,Place of Worship,place of worship,church; place_of_worship; point_of_interest; establishment,OPERATIONAL,4.7,23,NA
ChIJ68nlVt_724ARbnIMqEG7Cvc,Scripps Ranch Community Park,32.9266004,-117.0791608,Park,park,park; tourist_attraction; point_of_interest; establishment,OPERATIONAL,4.6,228,NA
ChIJ68Quy8z_24ARqKYl09g7cSE,Feel Good Coffee Cart,32.820458,-117.1263499,Social Business,cafe,cafe; food; point_of_interest; store; establishment,CLOSED_TEMPORARILY,3.7,6,TRUE
ChIJ69q0Hhj-24ARg6MxiBghI3Y,Starbucks,32.822233,-117.101718,Social Business,cafe,cafe; restaurant; food; point_of_interest; store; establishment,OPERATIONAL,4.1,374,NA
ChIJ69qTEWz324AR_UpxJ_RuCYo,Community park,33.0349535,-117.1145599,Community Space,community center,park; point_of_interest; establishment,OPERATIONAL,0,0,NA
ChIJ69qTEWz324AR_UpxJ_RuCYo,Community park,33.0349535,-117.1145599,Park,park,park; point_of_interest; establishment,OPERATIONAL,0,0,NA
ChIJ69Xt89wD3IARZz-DZJw3r6U,Café Vahik,32.8302789,-117.2769906,Social Business,cafe,cafe; restaurant; food; point_of_interest; store; establishment,OPERATIONAL,4.7,284,NA
ChIJ6cFyNScA3IARSmaAUYskCRI,Metropolitan Community Church,32.7899558,-117.2029821,Place of Worship,place of worship,church; place_of_worship; point_of_interest; establishment,OPERATIONAL,4.8,23,NA
ChIJ6cimMWFJ2YARj6ZH-CUL0VU,PARDO BARRA DE CAFÉ,32.5331989,-117.048416,Social Business,cafe,point_of_interest; establishment,OPERATIONAL,5,1,NA
ChIJ6cQ5_fVU2YARwBXs3d_grmY,Holy Matcha,32.7486913,-117.1271614,Social Business,cafe,cafe; food; point_of_interest; establishment,OPERATIONAL,4.1,361,NA
ChIJ6ehz5HhI2YAR84mAB1lEzhY,Templo Cristiano Ciencia Cristiana,32.5388414,-116.9875974,Place of Worship,place of worship,church; place_of_worship; point_of_interest; establishment,OPERATIONAL,0,0,NA
ChIJ6eNmxtBO2YARDY5eJIuz8Bk,Tapioca Express,32.5848134,-117.038811,Social Business,cafe,cafe; restaurant; food; point_of_interest; store; establishment,OPERATIONAL,3.8,135,NA
ChIJ6fvKrCkJ3IARTzTBIip9K0o,Solana Beach Parks and Recreation Department,32.9861593,-117.2588164,Community Space,community center,local_government_office; point_of_interest; establishment,OPERATIONAL,5,2,NA
ChIJ6QPzCadX2YARRHSUdr5Krug,Pink Rose Cafe,32.763925,-117.0211459,Social Business,cafe,cafe; food; point_of_interest; store; establishment,OPERATIONAL,4.7,104,NA
ChIJ6QuqFKJO2YARsYNuxQMXpdU,Otay Valley Regional Park Ranger Station,32.5879408,-117.0722061,Park,park,park; point_of_interest; establishment,OPERATIONAL,4.5,42,NA
ChIJ6RUQHRBH2YAR1FdHe87xlpo,Ministerio Group De Mostaza,32.5486328,-116.9262345,Place of Worship,place of worship,church; place_of_worship; point_of_interest; establishment,OPERATIONAL,0,0,NA
ChIJ6SJnfVlR2YARVWRozjiph14,Emerald Hills Park,32.7210091,-117.0738919,Park,park,park; point_of_interest; establishment,OPERATIONAL,4,163,NA
ChIJ6TeZ0V9Q2YARGIjilF1URdM,Starbucks,32.706655,-117.009544,Social Business,cafe,cafe; restaurant; food; point_of_interest; store; establishment,OPERATIONAL,3.8,659,NA
ChIJ6UTYDAOr3oAR3q5-4yjbvl8,Moniker Coffee Co,32.7410261,-117.2113548,Social Business,cafe,cafe; home_goods_store; food; point_of_interest; store; establishment,OPERATIONAL,4.6,344,NA
ChIJ6UTYDAOr3oARPVIuDVXmc6M,Moniker General,32.74098,-117.2113353,Social Business,cafe,home_goods_store; cafe; bar; food; point_of_interest; clothing_store; store; establishment,OPERATIONAL,4.5,149,NA
ChIJ6UWj_kb524AR8wyoS8T49P4,Scripps Ranch Villages Butterfly Park,32.9330799,-117.083373,Park,park,park; point_of_interest; establishment,OPERATIONAL,5,1,NA
ChIJ6UWj_kb524AR8wyoS8T49P4,Scripps Ranch Villages Butterfly Park,32.9330799,-117.083373,Park,garden,park; point_of_interest; establishment,OPERATIONAL,5,1,NA
ChIJ6V3tCZ1J2YARN47nopxDJCA,El Filtro Coffee And Tea,32.5262015,-117.0647841,Social Business,cafe,cafe; food; point_of_interest; store; establishment,CLOSED_TEMPORARILY,4.4,39,TRUE
ChIJ6VRlCuqq3oARgRFMXsaWHtw,Starbucks,32.764968,-117.197094,Social Business,cafe,cafe; restaurant; food; point_of_interest; store; establishment,OPERATIONAL,4.2,489,NA
ChIJ6W_rbQkI3IARniRe1nEwTyE,Starbucks,32.961802,-117.190078,Social Business,cafe,cafe; restaurant; food; point_of_interest; store; establishment,OPERATIONAL,4.2,202,NA
ChIJ6W-Wg7EG3IARrecMP_8ctwQ,Caroline's Seaside Cafe by Giuseppe,32.8645397,-117.2541726,Social Business,cafe,cafe; restaurant; food; point_of_interest; establishment,OPERATIONAL,4.4,1155,NA
ChIJ6W6OMWJI2YARtjA3GY7GtPA,Café Internet Visual,32.5460188,-116.9756244,Social Business,cafe,point_of_interest; establishment,OPERATIONAL,5,2,NA
ChIJ6WrgCxDy24ARGrbgP6A2V5I,Lion Camp Slush & Snacks,33.0973999,-116.9980912,Social Business,cafe,restaurant; food; point_of_interest; establishment,OPERATIONAL,0,0,NA
ChIJ6wSkS4dR2YARoxFakUHf_-w,I AM Eternal Ministries,32.7056486,-117.0262151,Place of Worship,place of worship,church; place_of_worship; point_of_interest; establishment,OPERATIONAL,0,0,NA
ChIJ6XjJTLRU2YARC_wSPaUMIpk,Stone & Garden,32.731086,-117.1697538,Park,garden,general_contractor; point_of_interest; establishment,OPERATIONAL,3,2,NA
ChIJ6XqQ16Cr3oARjMMfn0KY118,Point Loma Cafe,32.7258596,-117.2233054,Social Business,cafe,restaurant; food; point_of_interest; establishment,OPERATIONAL,4.2,211,NA
ChIJ6XZbMTMH3IAR_Aayt6urSoY,Garden Communities Southwest Office,32.8719468,-117.204839,Park,garden,real_estate_agency; point_of_interest; establishment,OPERATIONAL,5,2,NA
ChIJ6Y1PXKKr3oARm2VqO8pDx0Q,Point Break Cafe,32.7211111,-117.2288889,Social Business,cafe,cafe; restaurant; food; point_of_interest; store; establishment,OPERATIONAL,4.2,518,NA
ChIJ6Y4HkT5V2YAROcq3-r8rZUo,The Escala Clubhouse at Mission Valley,32.7859636,-117.1339691,Community Space,community center,point_of_interest; establishment,OPERATIONAL,4.8,13,NA
ChIJ6Y96rr3324ARev734OPkAfY,Embort Dogpark,33.0193806,-117.1355398,Park,park,park; point_of_interest; establishment,OPERATIONAL,3,3,NA
ChIJ6yKSdvFW2YARBXBfc0yr4Y0,DZ Akins,32.7750973,-117.0489808,Social Business,cafe,meal_delivery; meal_takeaway; restaurant; food; point_of_interest; store; establishment,OPERATIONAL,4.6,4081,NA
ChIJ6ZC1qtZV2YAR9H1FvJCehVg,The Phil Swing Memorial Garden,32.71688590000001,-117.1622478,Park,garden,park; point_of_interest; establishment,OPERATIONAL,0,0,NA
ChIJ6zeB3BFV2YARhrSk4M63Q_g,State Parks California,32.7744969,-117.1381944,Park,park,park; point_of_interest; establishment,OPERATIONAL,4.4,9,NA
ChIJ6zHqIntX2YARnxNY_ghF4E8,Mediterranean Garden,32.7768728,-117.0713447,Park,garden,park; point_of_interest; establishment,OPERATIONAL,4.5,2,NA
ChIJ6zi00isH3IAR7JUPqgvY0vs,Einstein Bros. Bagels,32.8729612,-117.2175092,Social Business,cafe,bakery; cafe; restaurant; food; point_of_interest; store; establishment,OPERATIONAL,4.1,288,NA
ChIJ6ZJ4X-ED3IARHR10ywQFEZ8,D G Wills Books,32.8401259,-117.2719983,Social Business,bookstore,book_store; point_of_interest; store; establishment,OPERATIONAL,4.5,86,NA
ChIJ6ZnENe5V2YAR8i_HASuEomA,Pride Square,32.7484634,-117.1498159,Park,square,point_of_interest; establishment,OPERATIONAL,4.5,117,NA
ChIJ6zSskShJ2YARFf18EfO21wI,Cesar Solis Community Park,32.5703513,-117.0251223,Park,park,point_of_interest; establishment,OPERATIONAL,4.6,104,NA
ChIJ6zuzQCoC3IAR9DwTDdMuubE,Calumet Park,32.8108689,-117.2693169,Park,park,park; tourist_attraction; point_of_interest; establishment,OPERATIONAL,4.8,479,NA
ChIJ7_6G4q1U2YAR8Z-GTLK7HIY,Frost Me Cafe and Bakery,32.722832,-117.1677805,Social Business,cafe,bakery; cafe; food; point_of_interest; store; establishment,OPERATIONAL,4.4,321,NA
ChIJ7_80g1lI2YAR2ygnqgFeGe4,Plaza Palm Spring,32.5341794,-117.0179384,Park,square,town_square,NA,NA,NA,NA
ChIJ7_PZW8pV2YARZ0N7W6aIchE,Parakeet Cafe,32.7228915,-117.168499,Social Business,cafe,cafe; restaurant; food; point_of_interest; establishment,OPERATIONAL,4.3,267,NA
ChIJ7-KTKZRO2YARX1G_EOUo-VM,CCMS tia chuy,32.5944428,-117.0616409,Community Space,community center,point_of_interest; establishment,CLOSED_TEMPORARILY,5,2,TRUE
ChIJ7-yU1OUD3IARFlybwtM-LTc,Fresheria - Be Fresh La Jolla,32.8394167,-117.2765958,Social Business,cafe,restaurant; food; point_of_interest; store; establishment,OPERATIONAL,4.4,146,NA
ChIJ70sFjkz624ARAkBpbor3hnU,Poway Dog Park,32.9517403,-117.0488916,Park,park,park; point_of_interest; establishment,OPERATIONAL,4.6,407,NA
ChIJ72hYy_n_24AReolkUTPcT4c,Single Marine Program,32.884815,-117.1347203,Social Business,cafe,cafe; food; point_of_interest; establishment,OPERATIONAL,0,0,NA
ChIJ74FdHd9T2YARaUdHdBuIaIs,House Of Prayer Full Gospel Ministry,32.708881,-117.0823505,Place of Worship,place of worship,point_of_interest; establishment,OPERATIONAL,0,0,NA
ChIJ752eWc9L2YARB9F6qvqLKts,Remanente De Vida,32.5192514,-117.0937585,Place of Worship,place of worship,church; place_of_worship; point_of_interest; establishment,OPERATIONAL,5,1,NA
ChIJ75QwkWJT2YARuB7W--SKJOg,Achilles Coffee Roasters @ Park 12,32.7067176,-117.1553389,Social Business,cafe,restaurant; food; point_of_interest; establishment,OPERATIONAL,4.6,47,NA
ChIJ75Z4rewG3IAR0SlEzmO-TDY,Bella Vista Social Club & Caffe,32.8895572,-117.2440488,Social Business,cafe,cafe; restaurant; food; point_of_interest; establishment,OPERATIONAL,4.5,511,NA
ChIJ765_bYVO2YARHLEIM2I0kzI,South Chula Vista Library,32.6019126,-117.0685522,Community Space,library,library; point_of_interest; establishment,OPERATIONAL,4.2,76,NA
ChIJ76GZr1VT2YARQt2Z744P8bQ,Starbucks,32.710331,-117.170544,Social Business,cafe,cafe; restaurant; food; point_of_interest; store; establishment,OPERATIONAL,4.2,355,NA
ChIJ76rcK3BV2YARqHyXTkmZfwM,Civic Center Square,32.717185,-117.162728,Park,square,point_of_interest; establishment,CLOSED_TEMPORARILY,0,0,TRUE
ChIJ77yoR8JX2YAR_F9PZNAGwf0,Little free library,32.812015,-117.0647436,Community Space,library,library; point_of_interest; establishment,OPERATIONAL,0,0,NA
ChIJ79oihsdO2YARGrGHyqDN9hs,San Diego Native Landscapes Inc.,32.5843912,-117.0556178,Park,garden,general_contractor; point_of_interest; establishment,OPERATIONAL,5,10,NA
ChIJ79xOQi6r3oARQuqr5vt_MoI,Gelato Vero Caffe,32.7432214,-117.1810028,Social Business,cafe,cafe; restaurant; food; point_of_interest; store; establishment,OPERATIONAL,4.7,508,NA
ChIJ7au0qgFJ2YARw3B5fH2scDs,Centro Comunitario L.G.B.T.I.,32.5374993,-117.0353743,Community Space,community center,point_of_interest; establishment,OPERATIONAL,5,1,NA
ChIJ7bEwbe3224ARw1Ijoa2xusE,4S Ranch Liberty County Park,33.0371619,-117.1132815,Park,park,park; tourist_attraction; point_of_interest; establishment,OPERATIONAL,4.6,99,NA
ChIJ7dsij1dJ2YARoT-zqqyxMnw,Biblioteca Pública Municipal Ricardo Flores Magón,32.5280323,-117.0508923,Community Space,library,library; point_of_interest; establishment,CLOSED_TEMPORARILY,0,0,TRUE
ChIJ7fjN4s5W2YARaferNdH4TvY,Vista La Mesa Park,32.7487613,-117.047963,Park,park,park; tourist_attraction; point_of_interest; establishment,OPERATIONAL,4.4,240,NA
ChIJ7fMsvKtU2YARnIyWJi52m0Q,Silver Streak Cafe,32.716529,-117.169518,Social Business,cafe,restaurant; food; point_of_interest; establishment,OPERATIONAL,4.3,4,NA
ChIJ7QJYoUJJ2YARYs1Tj8AJaAI,Botánica tomasito,32.5392374,-117.0377238,Park,garden,park; point_of_interest; establishment,OPERATIONAL,5,1,NA
ChIJ7RemNWtV2YARB7GjhKQFK4g,Civita Rec Center,32.7817047,-117.1461303,Community Space,community center,gym; health; point_of_interest; establishment,OPERATIONAL,4.7,65,NA
ChIJ7RgrCepQ2YARk5HLnU6-03M,Ildica Street County Park,32.7277905,-117.0137405,Park,park,park; point_of_interest; establishment,OPERATIONAL,2.5,20,NA
ChIJ7Ri5st7_24AR8MSQxQmt9I4,Walmart Patio & Garden Services,32.829543,-117.164984,Park,garden,general_contractor; point_of_interest; establishment,OPERATIONAL,0,0,NA
ChIJ7RQ9dJf_24AREi4-hs2Us3Q,0 Zone Billiard Cafe,32.8301088,-117.1528231,Social Business,cafe,cafe; food; point_of_interest; establishment,OPERATIONAL,4.6,100,NA
ChIJ7RY3_Dxa2YAR0piBm0TTFGw,Chain Reaction Church,32.7586629,-117.0362489,Place of Worship,place of worship,church; place_of_worship; point_of_interest; establishment,OPERATIONAL,0,0,NA
ChIJ7S8ZQ1pT2YARVnxcl579lg0,El Toyon Park,32.685394,-117.0877053,Park,park,tourist_attraction; park; point_of_interest; establishment,OPERATIONAL,4.3,500,NA
ChIJ7SBf8kAA3IARLu6UrqMpYQ8,Starbucks,32.81141,-117.200631,Social Business,cafe,cafe; restaurant; food; point_of_interest; store; establishment,OPERATIONAL,4.2,406,NA
ChIJ7SZuUB5J2YAR5C-Kmqe5AdE,Dulce tentacion crepas y café,32.5361009,-117.079206,Social Business,cafe,restaurant; food; point_of_interest; store; establishment,OPERATIONAL,4.9,34,NA
ChIJ7T9IJklS2YAR5hvKrwCbm3s,Roman Palace,32.6776596,-117.1079935,Community Space,city hall,point_of_interest; establishment,OPERATIONAL,4.3,15,NA
ChIJ7TBjgNBU2YAR9D8lvmExvpw,Bread & Cie,32.7484771,-117.1618988,Social Business,cafe,cafe; bakery; restaurant; food; point_of_interest; store; establishment,OPERATIONAL,4.6,959,NA
ChIJ7TBjgNBU2YARypyeWTF4UXY,Peet's Coffee,32.748394,-117.161986,Social Business,cafe,cafe; food; point_of_interest; store; establishment,OPERATIONAL,4.5,362,NA
ChIJ7V08zWD324ARz3Bsnx4Jors,Garfield Banana Statue,33.0000518,-117.1094239,Place of Worship,place of worship,place_of_worship; point_of_interest; establishment,CLOSED_PERMANENTLY,4.9,7,TRUE
ChIJ7VvSN2tP2YARadCo7CsmWZw,Rio East Community Pool and Park,32.5929292,-117.0396004,Park,park,park; point_of_interest; establishment,OPERATIONAL,4.3,3,NA
ChIJ7W3wq-Wq3oAREgO5NC7-pq0,HI-Lite Adult Bookstore,32.754262,-117.205649,Social Business,bookstore,book_store; point_of_interest; store; establishment,OPERATIONAL,4.2,55,NA
ChIJ7wCw3tQD3IARCLMPxW6tc10,Cafe Agave,32.8133683,-117.2696553,Social Business,cafe,point_of_interest; establishment,OPERATIONAL,4.7,12,NA
ChIJ7Woe08Or3oARzCiN4A04SxY,Point Break,32.7174488,-117.2505199,Social Business,cafe,cafe; food; point_of_interest; establishment,OPERATIONAL,4.2,6,NA
ChIJ7X86h-r_24ARKOp7w1J1EwM,Lil' Farmers Cafe,32.8188942,-117.1505562,Social Business,cafe,cafe; restaurant; food; point_of_interest; store; establishment,CLOSED_TEMPORARILY,4.4,100,TRUE
ChIJ7xACIpn_24ARt4jz4X9XMZw,San Diego First Church,32.8342164,-117.1455473,Place of Worship,place of worship,church; place_of_worship; point_of_interest; establishment,OPERATIONAL,5,1,NA
ChIJ7yA_inNU2YARv350bP-lG_8,Azalea Park Water Conservation Garden,32.7326631,-117.1070688,Park,park,park; point_of_interest; establishment,OPERATIONAL,4.6,101,NA
ChIJ7yA_inNU2YARv350bP-lG_8,Azalea Park Water Conservation Garden,32.7326631,-117.1070688,Park,garden,park; point_of_interest; establishment,OPERATIONAL,4.6,101,NA
ChIJ7Yfnk1tT2YARRmo2U4cvdNs,Park at the Park,32.7087647,-117.1565995,Park,park,park; tourist_attraction; point_of_interest; establishment,OPERATIONAL,4.7,410,NA
ChIJ7YK4IECq3oARPEUz-kl6p6c,Hospitality Point Park Gazebo,32.7595009,-117.2414957,Park,park,park; tourist_attraction; point_of_interest; establishment,OPERATIONAL,4.5,93,NA
ChIJ7z2dc7T_24AR7OprWUgffrk,Starbucks,32.83102,-117.1307,Social Business,cafe,cafe; restaurant; food; point_of_interest; store; establishment,OPERATIONAL,4.3,500,NA
ChIJ7ZC-29QA3IAR6YB6NWXL6Ho,Garden Communities,32.8714834,-117.2051844,Park,garden,point_of_interest; establishment,OPERATIONAL,2.9,7,NA
ChIJ7zfCyUpJ2YARodhbmP3K79Y,El Mapa Park,32.5402536,-117.0372703,Park,park,park; point_of_interest; establishment,CLOSED_TEMPORARILY,3.7,3,TRUE
ChIJ7zVnozH424ARcTKe-8WIAtM,Twin Trails Neighborhood Park,32.9593312,-117.1330761,Park,park,park; tourist_attraction; point_of_interest; establishment,OPERATIONAL,4.5,158,NA
ChIJ7zx87PFN2YAREXmLb0AIaEg,Walmart Patio & Garden Services,32.606887,-117.083014,Park,garden,general_contractor; point_of_interest; establishment,OPERATIONAL,0,0,NA
ChIJ8_6EWOL224AR5GalaF2Fz6E,Wendy's,33.0203859,-117.1116614,Social Business,cafe,restaurant; food; point_of_interest; establishment,OPERATIONAL,4.3,361,NA
ChIJ82-AkLWs3oARUR7fagMUkDM,Amalo Brew Coffee,32.691202,-117.177667,Social Business,cafe,bakery; meal_takeaway; cafe; restaurant; food; point_of_interest; store; establishment,OPERATIONAL,4.6,23,NA
ChIJ82P2lkZU2YARdYfiAMe-dlo,Rock Church City Heights,32.7549417,-117.1079821,Place of Worship,place of worship,church; place_of_worship; point_of_interest; establishment,OPERATIONAL,4.7,165,NA
ChIJ82WGIKFT2YARJbrTiIS3dMU,Greely Gardens,32.6986369,-117.123529,Park,garden,point_of_interest; establishment,OPERATIONAL,3.6,5,NA
ChIJ83Q7Oen324ARlntnpqDq5_I,RB Deli,33.0183034,-117.0801502,Social Business,cafe,restaurant; food; point_of_interest; establishment,OPERATIONAL,4.1,9,NA
ChIJ83S0vbT_24ARIv-bX3TEkDc,The Coffee Bean & Tea Leaf,32.8311495,-117.1284449,Social Business,cafe,cafe; food; point_of_interest; store; establishment,OPERATIONAL,4.4,511,NA
ChIJ83xCNX1J2YARHMy8wJpEQLg,Iglesia Epifanía,32.5352136,-117.0778773,Place of Worship,place of worship,place_of_worship; point_of_interest; establishment,OPERATIONAL,5,1,NA
ChIJ85FKKP2q3oARnm-WI7N9ikE,We The Redeemed,32.9114841,-117.1495667,Place of Worship,place of worship,church; place_of_worship; point_of_interest; establishment,OPERATIONAL,5,22,NA
ChIJ86RMcU-q3oARxpnJWMbx5GU,Ocean Beach Community Garden,32.7486357,-117.2356479,Park,garden,park; point_of_interest; establishment,OPERATIONAL,5,5,NA
ChIJ86rMxSZR2YARnDagMbNyY_g,Marie Widman Memorial Park,32.7103891,-117.052967,Park,park,park; point_of_interest; establishment,OPERATIONAL,3.8,5,NA
ChIJ8aLi1MMA3IAROcyniBJRBG0,University Square Barber Shop,32.8535075,-117.2024864,Park,square,hair_care; health; point_of_interest; establishment,OPERATIONAL,4,60,NA
ChIJ8b7nyt6q3oARtlVjhQkvH70,Heritage Park Canyon,32.7532819,-117.1912734,Park,park,park; point_of_interest; establishment,OPERATIONAL,5,4,NA
ChIJ8bpqpAT624AR1YqWOl7jDEI,420nm,32.976328,-117.073061,Park,park,park; point_of_interest; establishment,OPERATIONAL,0,0,NA
ChIJ8bUkXDZX2YARbzdRmIeC418,Father's House Church,32.6994299,-117.0150684,Place of Worship,place of worship,church; place_of_worship; point_of_interest; establishment,OPERATIONAL,4.6,15,NA
ChIJ8cC58Jj_24ARGNDh3gDdhqI,Adult Emporium,32.834736,-117.1522653,Social Business,bookstore,book_store; electronics_store; home_goods_store; point_of_interest; store; establishment,OPERATIONAL,4,73,NA
ChIJ8eUIgyBU2YARZ_oBZGrQFG4,Cafe Bien.,32.7574181,-117.0806024,Social Business,cafe,cafe; food; point_of_interest; establishment,OPERATIONAL,4,27,NA
ChIJ8Qtmex5J2YAR9mWBi_KNfus,Capa,32.5332548,-117.0753169,Place of Worship,place of worship,church; place_of_worship; point_of_interest; establishment,OPERATIONAL,5,5,NA
ChIJ8R5tKcZV2YAR2TH-L-zeqGE,Hollywood Neighborhood Park,32.7307758,-117.1041322,Park,park,park; point_of_interest; establishment,OPERATIONAL,4.5,35,NA
ChIJ8Rk0Y7QH3IARbjbPvXTEPIg,Wave Church SD,32.992625,-117.161326,Place of Worship,place of worship,church; place_of_worship; point_of_interest; establishment,OPERATIONAL,4.8,19,NA
ChIJ8RyB07yr3oARVFkphVVhB5w,Cabrillo Recreation Center,32.72179029999999,-117.232709,Community Space,community center,point_of_interest; establishment,OPERATIONAL,4.5,12,NA
ChIJ8SK4uJlW2YAR95nOasA_uo4,Christ Temple Apostolic Church,32.7606064,-117.0691966,Place of Worship,place of worship,church; place_of_worship; point_of_interest; establishment,OPERATIONAL,0,0,NA
ChIJ8TQR2ptO2YARCokEfNIXK5g,Design Square,32.5950488,-117.0716404,Park,square,general_contractor; point_of_interest; establishment,OPERATIONAL,0,0,NA
ChIJ8TrMlDVV2YARsN5zSAHOz4s,Eco Gardeners of San Diego,32.7507226,-117.1773682,Park,garden,general_contractor; point_of_interest; establishment,OPERATIONAL,3.7,3,NA
ChIJ8TVK9zZS2YARWlBn2_kQxIA,Pepita's Cafe,32.6801238,-117.0996458,Social Business,cafe,restaurant; food; point_of_interest; establishment,OPERATIONAL,4.6,28,NA
ChIJ8UmXfeLw24AR1Ey1qXpn9og,Manzanita Roasting Company and Coffee House,33.0328078,-117.0469739,Social Business,cafe,cafe; food; point_of_interest; store; establishment,OPERATIONAL,4.8,78,NA
ChIJ8V7h_cBW2YARnDyHRRxa-PQ,Rolando Park,32.7576645,-117.0530213,Park,park,park; tourist_attraction; point_of_interest; establishment,OPERATIONAL,4.2,110,NA
ChIJ8V9ihZir3oARgRUfZ8d486Q,Mission Point Beach,32.7607391,-117.2483257,Park,park,park; point_of_interest; establishment,OPERATIONAL,4.6,11,NA
ChIJ8VrrI2pR2YARLqYCMBNGzRI,First Samoan Assembly of God,32.7157028,-117.0613012,Place of Worship,place of worship,church; place_of_worship; point_of_interest; establishment,OPERATIONAL,4.8,4,NA
ChIJ8WhYodJW2YARaE3QGISw4KM,McDonald's,32.7428852,-117.0438068,Social Business,cafe,cafe; restaurant; food; point_of_interest; store; establishment,OPERATIONAL,3.7,954,NA
ChIJ8WLSXVxT2YARgQ0ZLD_RgrU,San Diego Public Library Foundation,32.7092868,-117.1540514,Community Space,library,point_of_interest; establishment,OPERATIONAL,4.6,25,NA
ChIJ8WLSXVxT2YARpL5y-KflAec,Friends Of The Central Library Bookstore,32.7087128,-117.1542968,Social Business,bookstore,book_store; point_of_interest; store; establishment,OPERATIONAL,4.5,17,NA
ChIJ8X-0ef5I2YARWdpyxawvMQU,Nativo Coffee Community,32.5411188,-117.0301348,Social Business,cafe,cafe; food; point_of_interest; store; establishment,OPERATIONAL,4.6,278,NA
ChIJ8X11HuSr3oARtwbrqGUQI_w,The Template,32.7465544,-117.2522026,Social Business,cafe,cafe; food; point_of_interest; store; establishment,OPERATIONAL,4.9,67,NA
ChIJ8zl7IUtR2YARMgmwWFVCc_E,Chollas Lake Park,32.7373747,-117.0605242,Park,park,park; point_of_interest; establishment,OPERATIONAL,4.6,1200,NA
ChIJ8zzdSzCr3oARe5-hPTajEK8,Washington Street Skate Park,32.7408505,-117.1845721,Park,park,tourist_attraction; park; point_of_interest; establishment,OPERATIONAL,4.6,124,NA
ChIJ9_IVO6VX2YARBLmRdVifMkU,Mission Trails Church,32.7936067,-117.0868525,Place of Worship,place of worship,church; place_of_worship; point_of_interest; establishment,OPERATIONAL,5,21,NA
ChIJ9_oC5SZS2YARXJF2J0Ac0ZY,McDonald's,32.6772368,-117.0829276,Social Business,cafe,cafe; restaurant; food; point_of_interest; store; establishment,OPERATIONAL,3.6,1480,NA
ChIJ908GnYD_24ARZKXVWtFgW4Y,Madison Square,32.8336116,-117.173043,Park,square,shopping_mall; point_of_interest; establishment,OPERATIONAL,4.4,137,NA
ChIJ90fbI1Gq3oARPC7EwrvFlyY,Point Loma Tennis Club Community,32.7484331,-117.22759,Community Space,community center,point_of_interest; establishment,OPERATIONAL,4.3,44,NA
ChIJ910MJAhJ2YARV5nQfYLvNqE,Parque Teniente Guerrero,32.5327254,-117.0455212,Park,park,park; tourist_attraction; point_of_interest; establishment,OPERATIONAL,4.4,7438,NA
ChIJ917XZwZJ2YARv-U4Kr1il-s,La Roca Del Alfarero,32.5372366,-117.0418761,Community Space,community center,point_of_interest; establishment,OPERATIONAL,0,0,NA
ChIJ91m3LMKr3oARCgIt5Cxf-6U,The Caf,32.7173367,-117.2504144,Social Business,cafe,restaurant; food; point_of_interest; establishment,OPERATIONAL,3.6,14,NA
ChIJ92t8RZxT2YARryu7oZD_Jfw,J Street Mini Park,32.70982370000001,-117.1227799,Park,park,park; point_of_interest; establishment,OPERATIONAL,4.5,11,NA
ChIJ93bNnsz524ARKHLizIthYNA,Starbucks,32.9584271,-117.1249166,Social Business,cafe,cafe; restaurant; food; point_of_interest; store; establishment,OPERATIONAL,4.3,183,NA
ChIJ93FvuTb524AR9vS04nEOT0M,Abiding Place Ministries,32.9748529,-117.2299996,Place of Worship,place of worship,church; place_of_worship; point_of_interest; establishment,OPERATIONAL,4.6,29,NA
ChIJ93ZYDd9V2YARgF_ekczT3Ng,Allied Gardens/Benjamin Branch Library,32.7931109,-117.0814836,Community Space,library,library; point_of_interest; establishment,OPERATIONAL,4.2,18,NA
ChIJ95Pf2ZD524ARb_43wQglpNQ,Sabre springs hill,32.9582286,-117.0950492,Park,park,park; point_of_interest; establishment,OPERATIONAL,4.7,6,NA
ChIJ995xmflU2YARTYaUjqY4sJk,Coffee & Tea Collective,32.755089,-117.130994,Social Business,cafe,cafe; food; point_of_interest; store; establishment,OPERATIONAL,4.6,233,NA
ChIJ9aT2k6FV2YARzHa3IrUW7L4,Uptown Community Center,32.7458354,-117.1297756,Community Space,community center,point_of_interest; establishment,OPERATIONAL,4.6,18,NA
ChIJ9bRM0CVM2YARpJTRnKCx8LA,Vision Church San Diego,32.5942065,-117.0860665,Place of Worship,place of worship,church; place_of_worship; point_of_interest; establishment,OPERATIONAL,4.8,31,NA
ChIJ9cfeYncI3IARNobfBDJBrHQ,Ashley Falls Park,32.9574491,-117.2086714,Park,park,park; tourist_attraction; point_of_interest; establishment,OPERATIONAL,4.7,102,NA
ChIJ9dCDzfMJ3IARZTuQW3PuBLY,Happy Lemon Del Mar,32.9526465,-117.2324266,Social Business,cafe,cafe; food; point_of_interest; establishment,OPERATIONAL,4.2,84,NA
ChIJ9dZdfnyq3oARI_cFYz7QSKM,Mission Bay Park,32.7896953,-117.2100084,Park,park,park; tourist_attraction; point_of_interest; establishment,OPERATIONAL,4.7,20100,NA
ChIJ9eVvsNj_24ARr82DHxd57E4,The Village at Serra Mesa Community Area,32.8032303,-117.1435712,Park,park,park; point_of_interest; establishment,OPERATIONAL,4.2,27,NA
ChIJ9fAjSvoA3IARSLh_VhbC1go,Gershwin Park,32.8350573,-117.2114626,Park,park,park; tourist_attraction; point_of_interest; establishment,OPERATIONAL,4.6,144,NA
ChIJ9Q6Q4_sD3IAROr3uf6M5qoU,Ellen Browning Scripps Park,32.8497568,-117.2744567,Park,park,park; tourist_attraction; point_of_interest; establishment,OPERATIONAL,4.8,493,NA
ChIJ9QJzPscB3IARloe2WGuC0MA,Drift Cafe,32.7986283,-117.2563822,Social Business,cafe,cafe; restaurant; food; point_of_interest; establishment,OPERATIONAL,4.9,40,NA
ChIJ9RMdE-hU2YARg64pivw95uY,Footnote Books,32.7482991,-117.1485905,Social Business,bookstore,book_store; point_of_interest; store; establishment,OPERATIONAL,4.2,99,NA
ChIJ9SAn4cZV2YARwQ6JvvwiJG0,Little Free Library #86693,32.771877,-117.1168183,Community Space,library,library; point_of_interest; establishment,OPERATIONAL,0,0,NA
ChIJ9SWk9XFW2YARHq6orLN1oCo,Navajo Canyon Open Space Park,32.7959337,-117.0745586,Park,park,tourist_attraction; park; point_of_interest; establishment,OPERATIONAL,3.8,15,NA
ChIJ9SZ1_JsB3IARVczDz6GJU4k,Presotea & Coffee Shop,32.7944522,-117.254545,Social Business,cafe,cafe; food; point_of_interest; store; establishment,OPERATIONAL,4.8,79,NA
ChIJ9U2jesdU2YARoihv2PTVTDs,Trees for Health Garden,32.7372042,-117.1583825,Park,garden,tourist_attraction; park; point_of_interest; establishment,OPERATIONAL,4.7,117,NA
ChIJ9wpPfsZT2YAReHm9q2_U9p4,Ocean View Growing Grounds,32.7007543,-117.097283,Park,garden,park; point_of_interest; establishment,OPERATIONAL,4.7,19,NA
ChIJ9WYloI5T2YARdgsNsSs98nk,Chollas Creekside Park,32.7105865,-117.0868191,Park,park,park; point_of_interest; establishment,OPERATIONAL,5,4,NA
ChIJ9XoA_RtU2YARfw1VK1GQy2I,Wightman Street Park,32.747802,-117.085846,Park,park,park; point_of_interest; establishment,OPERATIONAL,3.8,42,NA
ChIJ9XRA24BV2YARqvjayUuXRE4,San Diego River Center at Grant Park,32.7725174,-117.1384209,Park,park,park; point_of_interest; establishment,OPERATIONAL,0,0,NA
ChIJ9xyWZ-L424ARdRv69zpYeTA,Twigg Landscape,32.917749,-117.127855,Park,garden,general_contractor; point_of_interest; establishment,OPERATIONAL,5,1,NA
ChIJ9xzW_O8D3IARy81KHoNgM70,Cuvier Park,32.8435225,-117.2800282,Park,park,park; tourist_attraction; point_of_interest; establishment,OPERATIONAL,4.7,1661,NA
ChIJ9Yu42bbx24ARCojVQu1r_zo,Everbowl - Rancho Bernardo,33.00226749999999,-117.0591348,Social Business,cafe,restaurant; cafe; food; point_of_interest; establishment,OPERATIONAL,4.6,30,NA
ChIJ9Z3cfdYI3IARiWQKUGblOF8,Calvary Lutheran Church,32.9808647,-117.261687,Place of Worship,place of worship,church; place_of_worship; point_of_interest; establishment,OPERATIONAL,4.8,11,NA
ChIJ9zJGweZU2YARI4GU7b2t1Uw,University Heights Branch Library,32.7538466,-117.1458811,Community Space,library,library; point_of_interest; establishment,OPERATIONAL,4.5,15,NA
ChIJa_CSBIpI2YAREfAyb1CLjIo,Más Café,32.5421005,-117.0026764,Social Business,cafe,cafe; food; point_of_interest; store; establishment,OPERATIONAL,4.1,8,NA
ChIJA_tVgnpX2YARyrSexm5wSF8,Howell Dr Pool,32.7864357,-116.9968522,Community Space,community center,point_of_interest; establishment,CLOSED_TEMPORARILY,0,0,TRUE
ChIJa_u-5h4A3IARZ-Rr1oldKes,Starbucks,32.794429,-117.193694,Social Business,cafe,cafe; restaurant; food; point_of_interest; store; establishment,OPERATIONAL,4.4,274,NA
ChIJA_UyqZf_24ARIOYMlXtjsHw,R3FRESH Juice Bar,32.8295503,-117.152596,Social Business,cafe,cafe; food; point_of_interest; establishment,OPERATIONAL,4.6,77,NA
ChIJA-gD_a1R2YARLkhVAyyNJTA,Sweetwater Community Garden,32.6767119,-117.0192768,Park,garden,park; point_of_interest; establishment,OPERATIONAL,5,3,NA
ChIJa-Je6EZU2YARmWpzaG_R2vE,Cali Cafe,32.7550067,-117.1067275,Social Business,cafe,cafe; food; point_of_interest; establishment,OPERATIONAL,4.4,23,NA
ChIJA05CMS5V2YARl-sGpM7OV8I,Amici Park,32.723158,-117.166425,Park,park,park; point_of_interest; establishment,OPERATIONAL,5,1,NA
ChIJA09XAhhU2YARebr8IiQVsw8,"Church of Jesus Christ, Apostolic",32.7515685,-117.0909817,Place of Worship,place of worship,church; place_of_worship; point_of_interest; establishment,OPERATIONAL,5,11,NA
ChIJa0aWTscB3IARqeU6DlBTyx8,"Cool Creations, Pottery Studio & Cafe",32.8002812,-117.2377634,Social Business,cafe,cafe; food; point_of_interest; store; establishment,OPERATIONAL,4.5,14,NA
ChIJa0C91aJX2YAReJHBw-6hn0g,Einstein Bros. Bagels,32.802832,-117.0126296,Social Business,cafe,bakery; cafe; restaurant; food; point_of_interest; store; establishment,OPERATIONAL,4.3,178,NA
